codigoestacion,COD_MPIO,NOM_MPIO,NOM_DPTO,LATITUD,LONGITUD,precip_acum_mm,precip_max_10min,n_estaciones,alerta,prop_alertas,categoria,tamaño
0011027030,27245,EL CARMEN DE ATRATO,CHOCÓ,5.810938364,-76.19189442,2.1,0.8,4,1,0.08163265306122448,Muy ligera (< 5 mm),5.0
0011030010,27160,CÉRTEGUI,CHOCÓ,5.389828229,-76.52264237,114.4,10.9,5,1,0.20512820512820512,Extrema (≥ 100 mm),22.0
0011035010,27413,LLORÓ,CHOCÓ,5.585101179,-76.38544449,69.3,14.0,3,0,0.04285714285714286,Muy fuerte (60–100 mm),20.204644353221035
0011035030,27135,EL CANTÓN DEL SAN PABLO,CHOCÓ,5.359661967,-76.77255624,82.7,13.1,4,1,0.2222222222222222,Muy fuerte (60–100 mm),21.87755246566832
0011035030,27810,UNIÓN PANAMERICANA,CHOCÓ,5.281599258,-76.61962746,82.7,13.1,4,1,0.2222222222222222,Muy fuerte (60–100 mm),21.87755246566832
0011047020,27001,QUIBDÓ,CHOCÓ,5.7543229,-76.65015147,71.0,17.3,2,1,0.058333333333333334,Muy fuerte (60–100 mm),20.426196788724855
0011057020,5873,VIGÍA DEL FUERTE,ANTIOQUIA,6.453351334,-76.69504802,1.2000000000000002,0.2,3,1,0.10465116279069768,Muy ligera (< 5 mm),5.0
0011057020,27425,MEDIO ATRATO,CHOCÓ,6.033880098,-76.6734697,1.2000000000000002,0.2,3,1,0.10465116279069768,Muy ligera (< 5 mm),5.0
0011080010,5475,MURINDÓ,ANTIOQUIA,6.828773855,-76.70861349,0.0,0.0,2,0,0.04246575342465753,Sin lluvia (0 mm),5.0
0011080010,27075,BAHÍA SOLANO,CHOCÓ,6.162762775,-77.41653534,0.0,0.0,2,0,0.04246575342465753,Sin lluvia (0 mm),5.0
0011080010,27099,BOJAYÁ,CHOCÓ,6.474666885,-77.09933025,0.0,0.0,2,0,0.04246575342465753,Sin lluvia (0 mm),5.0
0011110010,5138,CAÑASGORDAS,ANTIOQUIA,6.814950023,-76.02689632,16.2,5.3,2,1,0.0625,Moderada (15–30 mm),10.50516822188697
0011110110,5113,BURITICÁ,ANTIOQUIA,6.80906489,-75.91206595,0.0,0.0,2,0,0.041791044776119404,Sin lluvia (0 mm),5.0
0011110110,5306,GIRALDO,ANTIOQUIA,6.663095863,-75.94804663,0.0,0.0,2,0,0.041791044776119404,Sin lluvia (0 mm),5.0
0011115040,5284,FRONTINO,ANTIOQUIA,6.691364773,-76.33199656,5.8,2.3,2,1,0.06017191977077364,Ligera (5–15 mm),6.61704139963322
0011117010,5842,URAMITA,ANTIOQUIA,6.913916924,-76.13318514,2.4,0.5,2,1,0.06303724928366762,Muy ligera (< 5 mm),5.0
0011117050,5234,DABEIBA,ANTIOQUIA,6.992243782,-76.31426328,1.4000000000000001,0.4,4,1,0.07102272727272728,Muy ligera (< 5 mm),5.0
0011135030,27006,ACANDÍ,CHOCÓ,8.383938499,-77.26560256,0.0,0.0,4,1,0.0759493670886076,Sin lluvia (0 mm),5.0
0011135030,27800,UNGUÍA,CHOCÓ,8.117281079,-77.10372723,0.0,0.0,4,1,0.0759493670886076,Sin lluvia (0 mm),5.0
0011175000,27050,ATRATO,CHOCÓ,5.525825084,-76.65064357,5.2,0.6,6,1,0.22388059701492538,Ligera (5–15 mm),6.29974193703073
0012015060,5045,APARTADÓ,ANTIOQUIA,7.86047815,-76.58236264,0.0,0.0,3,1,0.10526315789473684,Sin lluvia (0 mm),5.0
0012015060,5147,CAREPA,ANTIOQUIA,7.757967437,-76.64374657,0.0,0.0,3,1,0.10526315789473684,Sin lluvia (0 mm),5.0
0012017020,5172,CHIGORODÓ,ANTIOQUIA,7.631665644,-76.63964213,0.0,0.0,4,1,0.07352941176470588,Sin lluvia (0 mm),5.0
0012025040,5490,NECOCLÍ,ANTIOQUIA,8.493728551,-76.67699588,0.0,0.0,2,1,0.06153846153846154,Sin lluvia (0 mm),5.0
0012025040,5837,TURBO,ANTIOQUIA,8.173851745,-76.5740377,0.0,0.0,2,1,0.06153846153846154,Sin lluvia (0 mm),5.0
0012045020,23419,LOS CÓRDOBAS,CÓRDOBA,8.823307063,-76.3430552,0.0,0.0,3,1,0.09770114942528736,Sin lluvia (0 mm),5.0
0012045020,23500,MOÑITOS,CÓRDOBA,9.190515343,-76.11931709,0.0,0.0,3,1,0.09770114942528736,Sin lluvia (0 mm),5.0
0012045020,23574,PUERTO ESCONDIDO,CÓRDOBA,8.988667731,-76.19405912,0.0,0.0,3,1,0.09770114942528736,Sin lluvia (0 mm),5.0
0013015040,23807,TIERRALTA,CÓRDOBA,7.813896829,-76.16846678,0.0,0.0,2,1,0.06529209621993128,Sin lluvia (0 mm),5.0
0013015040,23855,VALENCIA,CÓRDOBA,8.219904128,-76.2213286,0.0,0.0,2,1,0.06529209621993128,Sin lluvia (0 mm),5.0
0013027040,23068,AYAPEL,CÓRDOBA,8.265768688,-75.04868436,2.4,2.3,7,1,0.12021857923497267,Muy ligera (< 5 mm),5.0
0013035501,23162,CERETÉ,CÓRDOBA,8.895667051,-75.87842391,0.0,0.0,5,1,0.0783132530120482,Sin lluvia (0 mm),5.0
0013035501,23686,SAN PELAYO,CÓRDOBA,8.987777392,-75.90958771,0.0,0.0,5,1,0.0783132530120482,Sin lluvia (0 mm),5.0
0013075010,23168,CHIMÁ,CÓRDOBA,9.11024941,-75.65237351,0.0,0.0,2,1,0.0625,Sin lluvia (0 mm),5.0
0013075010,23300,COTORRA,CÓRDOBA,9.071460219,-75.75459276,0.0,0.0,2,1,0.0625,Sin lluvia (0 mm),5.0
0013075010,23464,MOMIL,CÓRDOBA,9.265461621,-75.65090876,0.0,0.0,2,1,0.0625,Sin lluvia (0 mm),5.0
0013075010,23670,SAN ANDRÉS DE SOTAVENTO,CÓRDOBA,9.121296353,-75.52091711,0.0,0.0,2,1,0.0625,Sin lluvia (0 mm),5.0
0013075010,23815,TUCHÍN,CÓRDOBA,9.224630803,-75.54410593,0.0,0.0,2,1,0.0625,Sin lluvia (0 mm),5.0
0013075010,70221,COVEÑAS,SUCRE,9.394449802,-75.6574915,0.0,0.0,2,1,0.0625,Sin lluvia (0 mm),5.0
0013077060,23417,LORICA,CÓRDOBA,9.165034998,-75.90978124,0.2,0.2,5,1,0.13008130081300814,Muy ligera (< 5 mm),5.0
0013077060,23586,PURÍSIMA DE LA CONCEPCIÓN,CÓRDOBA,9.282386127,-75.72129392,0.2,0.2,5,1,0.13008130081300814,Muy ligera (< 5 mm),5.0
0013077060,23672,SAN ANTERO,CÓRDOBA,9.359667489,-75.78700252,0.2,0.2,5,1,0.13008130081300814,Muy ligera (< 5 mm),5.0
0013077060,23675,SAN BERNARDO DEL VIENTO,CÓRDOBA,9.330098329,-75.97623858,0.2,0.2,5,1,0.13008130081300814,Muy ligera (< 5 mm),5.0
0014015080,13001,CARTAGENA DE INDIAS,BOLÍVAR,10.46343362,-75.45889915,4.0,0.3,3,0,0.05132743362831858,Muy ligera (< 5 mm),5.598197949220845
0014015080,13683,SANTA ROSA,BOLÍVAR,10.46920726,-75.36116053,4.0,0.3,3,0,0.05132743362831858,Muy ligera (< 5 mm),5.598197949220845
0015035020,44090,DIBULLA,LA GUAJIRA,11.09029715,-73.43568788,0.0,0.0,4,0,0.04846938775510204,Sin lluvia (0 mm),5.0
0015065040,44078,BARRANCAS,LA GUAJIRA,10.94871677,-72.69696879,0.0,0.0,4,1,0.06,Sin lluvia (0 mm),5.0
0015065040,44279,FONSECA,LA GUAJIRA,10.8283716,-72.8018178,0.0,0.0,4,1,0.06,Sin lluvia (0 mm),5.0
0015065180,44560,MANAURE,LA GUAJIRA,11.60554263,-72.57160392,0.0,0.0,5,1,0.0823293172690763,Sin lluvia (0 mm),5.0
0015065190,44001,RIOHACHA,LA GUAJIRA,11.24297214,-72.95876315,0.0,0.0,4,0,0.028481012658227847,Sin lluvia (0 mm),5.0
0015065501,44035,ALBANIA,LA GUAJIRA,11.22869049,-72.53209657,0.0,0.0,4,1,0.06976744186046512,Sin lluvia (0 mm),5.0
0015065501,44378,HATONUEVO,LA GUAJIRA,11.09905582,-72.73842427,0.0,0.0,4,1,0.06976744186046512,Sin lluvia (0 mm),5.0
0015067020,44098,DISTRACCIÓN,LA GUAJIRA,10.92505107,-72.94444027,0.0,0.0,5,1,0.25,Sin lluvia (0 mm),5.0
0015080070,44847,URIBIA,LA GUAJIRA,11.99971986,-71.74882662,0.0,0.0,2,0,0.04597701149425287,Sin lluvia (0 mm),5.0
0015085030,44430,MAICAO,LA GUAJIRA,11.38157764,-72.29500818,0.0,0.0,3,0,0.04580152671755725,Sin lluvia (0 mm),5.0
0016015120,54518,PAMPLONA,NORTE DE SANTANDER,7.379057623,-72.67590348,0.0,0.0,4,1,0.06734006734006734,Sin lluvia (0 mm),5.0
0016015130,54347,HERRÁN,NORTE DE SANTANDER,7.493955781,-72.49269998,0.0,0.0,2,0,0.0404707233065442,Sin lluvia (0 mm),5.0
0016015130,54599,RAGONVALIA,NORTE DE SANTANDER,7.595355974,-72.50756622,0.0,0.0,2,0,0.0404707233065442,Sin lluvia (0 mm),5.0
0016015501,54673,SAN CAYETANO,NORTE DE SANTANDER,7.847872195,-72.60971203,0.0,0.0,4,1,0.0893854748603352,Sin lluvia (0 mm),5.0
0016017020,54099,BOCHALEMA,NORTE DE SANTANDER,7.608509339,-72.65951909,0.0,0.0,4,1,0.06132075471698113,Sin lluvia (0 mm),5.0
0016017020,54172,CHINÁCOTA,NORTE DE SANTANDER,7.583353136,-72.58390978,0.0,0.0,4,1,0.06132075471698113,Sin lluvia (0 mm),5.0
0016017020,54239,DURANIA,NORTE DE SANTANDER,7.746993206,-72.67208072,0.0,0.0,4,1,0.06132075471698113,Sin lluvia (0 mm),5.0
0016017020,54405,LOS PATIOS,NORTE DE SANTANDER,7.742291094,-72.52680784,0.0,0.0,4,1,0.06132075471698113,Sin lluvia (0 mm),5.0
0016017020,54874,VILLA DEL ROSARIO,NORTE DE SANTANDER,7.718635863,-72.48361176,0.0,0.0,4,1,0.06132075471698113,Sin lluvia (0 mm),5.0
0016025040,54001,SAN JOSÉ DE CÚCUTA,NORTE DE SANTANDER,8.112041811,-72.48862641,0.0,0.0,3,0,0.04878048780487805,Sin lluvia (0 mm),5.0
0016025040,54553,PUERTO SANTANDER,NORTE DE SANTANDER,8.329138642,-72.41119066,0.0,0.0,3,0,0.04878048780487805,Sin lluvia (0 mm),5.0
0016025040,54810,TIBÚ,NORTE DE SANTANDER,8.713507237,-72.79925855,0.0,0.0,3,0,0.04878048780487805,Sin lluvia (0 mm),5.0
0016027280,54261,EL ZULIA,NORTE DE SANTANDER,8.081200092,-72.63152118,0.0,0.0,4,1,0.06321839080459771,Sin lluvia (0 mm),5.0
0016027280,54720,SARDINATA,NORTE DE SANTANDER,8.215080767,-72.79580961,0.0,0.0,4,1,0.06321839080459771,Sin lluvia (0 mm),5.0
0016027300,54223,CUCUTILLA,NORTE DE SANTANDER,7.502182366,-72.79703447,0.0,0.0,4,1,0.08695652173913043,Sin lluvia (0 mm),5.0
0016055120,20310,GONZÁLEZ,CESAR,8.405516522,-73.37537309,0.7000000000000001,0.1,4,1,0.06382978723404255,Muy ligera (< 5 mm),5.0
0016055120,20614,RÍO DE ORO,CESAR,8.201070245,-73.48750127,0.7000000000000001,0.1,4,1,0.06382978723404255,Muy ligera (< 5 mm),5.0
0016055120,54250,EL TARRA,NORTE DE SANTANDER,8.678263671,-73.0317597,0.7000000000000001,0.1,4,1,0.06382978723404255,Muy ligera (< 5 mm),5.0
0016055120,54344,HACARÍ,NORTE DE SANTANDER,8.361831987,-73.0782633,0.7000000000000001,0.1,4,1,0.06382978723404255,Muy ligera (< 5 mm),5.0
0016055120,54398,LA PLAYA,NORTE DE SANTANDER,8.256757875,-73.18789327,0.7000000000000001,0.1,4,1,0.06382978723404255,Muy ligera (< 5 mm),5.0
0016055120,54498,OCAÑA,NORTE DE SANTANDER,8.206637527,-73.33765033,0.7000000000000001,0.1,4,1,0.06382978723404255,Muy ligera (< 5 mm),5.0
0016055120,54670,SAN CALIXTO,NORTE DE SANTANDER,8.414441404,-73.2176038,0.7000000000000001,0.1,4,1,0.06382978723404255,Muy ligera (< 5 mm),5.0
0017015010,88001,SAN ANDRÉS,"ARCHIPIÉLAGO DE SAN ANDRÉS, PROVIDENCIA Y SANTA CATALINA",12.54311512,-81.71762382,0.0,0.0,5,1,0.10040160642570281,Sin lluvia (0 mm),5.0
0017025020,88564,PROVIDENCIA,"ARCHIPIÉLAGO DE SAN ANDRÉS, PROVIDENCIA Y SANTA CATALINA",13.3511096,-81.37388549,1.0,0.4,4,1,0.06458333333333334,Muy ligera (< 5 mm),5.0
0021015020,41551,PITALITO,HUILA,1.848217185,-76.05217643,0.0,0.0,2,1,0.07430340557275542,Sin lluvia (0 mm),5.0
0021015040,41660,SALADOBLANCO,HUILA,2.100382849,-76.22897871,0.0,0.0,4,1,0.1532567049808429,Sin lluvia (0 mm),5.0
0021015050,41668,SAN AGUSTÍN,HUILA,1.924165493,-76.4165655,0.0,0.0,4,0,0.05093099671412924,Sin lluvia (0 mm),5.0
0021015070,41530,PALESTINA,HUILA,1.68458076,-76.1478559,0.0,0.0,4,0,0.0512874188821436,Sin lluvia (0 mm),5.0
0021017030,41359,ISNOS,HUILA,1.945591321,-76.18204722,0.0,0.0,3,1,0.07520891364902507,Sin lluvia (0 mm),5.0
0021017040,41244,ELÍAS,HUILA,2.022053305,-75.94430521,0.0,0.0,4,1,0.05912162162162162,Sin lluvia (0 mm),5.0
0021017040,41503,OPORAPA,HUILA,2.061191362,-76.04110289,0.0,0.0,4,1,0.05912162162162162,Sin lluvia (0 mm),5.0
0021017040,41807,TIMANÁ,HUILA,1.950715226,-75.91757649,0.0,0.0,4,1,0.05912162162162162,Sin lluvia (0 mm),5.0
0021025030,41026,ALTAMIRA,HUILA,2.07922808,-75.76858288,0.0,0.0,4,1,0.05714285714285714,Sin lluvia (0 mm),5.0
0021025030,41319,GUADALUPE,HUILA,1.984394016,-75.69693549,0.0,0.0,4,1,0.05714285714285714,Sin lluvia (0 mm),5.0
0021035040,41770,SUAZA,HUILA,1.870992095,-75.80798471,0.0,0.0,3,1,0.06074766355140187,Sin lluvia (0 mm),5.0
0021037020,18094,BELÉN DE LOS ANDAQUÍES,CAQUETÁ,1.536174657,-75.90947504,0.0,0.0,4,1,0.08152173913043478,Sin lluvia (0 mm),5.0
0021037020,41006,ACEVEDO,HUILA,1.709114446,-75.99664184,0.0,0.0,4,1,0.08152173913043478,Sin lluvia (0 mm),5.0
0021045010,41013,AGRADO,HUILA,2.26975042,-75.71632236,0.0,0.0,3,1,0.06,Sin lluvia (0 mm),5.0
0021045010,41548,PITAL,HUILA,2.259601773,-75.8319516,0.0,0.0,3,1,0.06,Sin lluvia (0 mm),5.0
0021050060,41378,LA ARGENTINA,HUILA,2.156287619,-76.00679451,0.0,0.0,4,1,0.0744466800804829,Sin lluvia (0 mm),5.0
0021050060,41791,TARQUI,HUILA,2.130280544,-75.87534845,0.0,0.0,4,1,0.0744466800804829,Sin lluvia (0 mm),5.0
0021057050,19355,INZÁ,CAUCA,2.499058783,-76.13762531,0.0,0.0,4,1,0.0955223880597015,Sin lluvia (0 mm),5.0
0021057050,41396,LA PLATA,HUILA,2.328076586,-76.00117299,0.0,0.0,4,1,0.0955223880597015,Sin lluvia (0 mm),5.0
0021057060,19517,PÁEZ,CAUCA,2.733887702,-75.99368264,0.2,0.2,4,1,0.06648936170212766,Muy ligera (< 5 mm),5.0
0021057060,41483,NÁTAGA,HUILA,2.576066285,-75.78693757,0.2,0.2,4,1,0.06648936170212766,Muy ligera (< 5 mm),5.0
0021057060,41518,PAICOL,HUILA,2.40689827,-75.72803027,0.2,0.2,4,1,0.06648936170212766,Muy ligera (< 5 mm),5.0
0021057060,41797,TESALIA,HUILA,2.526855132,-75.68259642,0.2,0.2,4,1,0.06648936170212766,Muy ligera (< 5 mm),5.0
0021065040,41298,GARZÓN,HUILA,2.172441496,-75.57131243,0.0,0.0,3,1,0.05569948186528497,Sin lluvia (0 mm),5.0
0021065040,41306,GIGANTE,HUILA,2.371781539,-75.51699754,0.0,0.0,3,1,0.05569948186528497,Sin lluvia (0 mm),5.0
0021085030,41357,ÍQUIRA,HUILA,2.691517773,-75.67383141,0.0,0.0,2,0,0.04891304347826087,Sin lluvia (0 mm),5.0
0021085030,41885,YAGUARÁ,HUILA,2.646563339,-75.51592645,0.0,0.0,2,0,0.04891304347826087,Sin lluvia (0 mm),5.0
0021095010,41615,RIVERA,HUILA,2.79286115,-75.23536868,0.0,0.0,3,1,0.0625,Sin lluvia (0 mm),5.0
0021097070,41001,NEIVA,HUILA,2.993360046,-75.27236232,0.0,0.0,5,1,0.0546875,Sin lluvia (0 mm),5.0
0021097070,41524,PALERMO,HUILA,2.914491967,-75.44066118,0.0,0.0,5,1,0.0546875,Sin lluvia (0 mm),5.0
0021097120,41132,CAMPOALEGRE,HUILA,2.658666675,-75.32943803,0.0,0.0,4,1,0.07932011331444759,Sin lluvia (0 mm),5.0
0021105030,41020,ALGECIRAS,HUILA,2.49785068,-75.29134946,0.0,0.0,4,1,0.09060402684563758,Sin lluvia (0 mm),5.0
0021105030,41349,HOBO,HUILA,2.541654161,-75.44781083,0.0,0.0,4,1,0.09060402684563758,Sin lluvia (0 mm),5.0
0021115100,41799,TELLO,HUILA,3.030611777,-75.08536553,0.0,0.0,4,1,0.5,Sin lluvia (0 mm),5.0
0021125010,41676,SANTA MARÍA,HUILA,2.926265937,-75.63359786,0.0,0.0,4,0,0.05432595573440644,Sin lluvia (0 mm),5.0
0021125010,41801,TERUEL,HUILA,2.851852692,-75.75988934,0.0,0.0,4,0,0.05432595573440644,Sin lluvia (0 mm),5.0
0021130050,41016,AIPE,HUILA,3.243441923,-75.27670655,0.0,0.0,3,1,0.08,Sin lluvia (0 mm),5.0
0021135020,73671,SALDAÑA,TOLIMA,3.912542787,-75.01859762,9.6,4.0,5,1,0.07547169811320754,Ligera (5–15 mm),8.30124648947292
0021137050,73483,NATAGAIMA,TOLIMA,3.540518203,-75.12200999,0.0,0.0,4,1,0.08,Sin lluvia (0 mm),5.0
0021140120,73024,ALPUJARRA,TOLIMA,3.390015064,-74.94078233,5.1,1.8,4,0,0.05142857142857143,Ligera (5–15 mm),6.2449337282192605
0021147010,41872,VILLAVIEJA,HUILA,3.287057875,-75.13838292,0.0,0.0,2,1,0.05970149253731343,Sin lluvia (0 mm),5.0
0021147030,41078,BARAYA,HUILA,3.135423634,-74.95797796,0.0,0.0,3,1,0.0684931506849315,Sin lluvia (0 mm),5.0
0021147030,41206,COLOMBIA,HUILA,3.262763564,-74.78516117,0.0,0.0,3,1,0.0684931506849315,Sin lluvia (0 mm),5.0
0021147030,50370,URIBE,META,3.047726858,-74.43066134,0.0,0.0,3,1,0.0684931506849315,Sin lluvia (0 mm),5.0
0021160260,73873,VILLARRICA,TOLIMA,3.854384097,-74.61896623,0.0,0.0,3,1,0.0592396109637489,Sin lluvia (0 mm),5.0
0021167060,73226,CUNDAY,TOLIMA,3.98252395,-74.68936908,0.0,0.0,4,0,0.04988399071925754,Sin lluvia (0 mm),5.0
0021167080,73236,DOLORES,TOLIMA,3.597863274,-74.80256674,0.0,0.0,4,1,0.14285714285714285,Sin lluvia (0 mm),5.0
0021167080,73563,PRADO,TOLIMA,3.729166649,-74.87247706,0.0,0.0,4,1,0.14285714285714285,Sin lluvia (0 mm),5.0
0021167080,73585,PURIFICACIÓN,TOLIMA,3.854281614,-74.87451155,0.0,0.0,4,1,0.14285714285714285,Sin lluvia (0 mm),5.0
0021185030,73319,GUAMO,TOLIMA,4.076501341,-74.97657287,0.0,0.0,4,0,0.052054794520547946,Sin lluvia (0 mm),5.0
0021185030,73770,SUÁREZ,TOLIMA,3.969210629,-74.84448738,0.0,0.0,4,0,0.052054794520547946,Sin lluvia (0 mm),5.0
0021185080,73854,VALLE DE SAN JUAN,TOLIMA,4.182125647,-75.17148237,0.30000000000000004,0.2,4,1,0.0744466800804829,Muy ligera (< 5 mm),5.0
0021185090,73268,ESPINAL,TOLIMA,4.166476969,-74.89352941,0.0,0.0,4,1,0.11671087533156499,Sin lluvia (0 mm),5.0
0021195120,25290,FUSAGASUGÁ,CUNDINAMARCA,4.323534028,-74.38859114,0.6000000000000001,0.4,4,1,0.06983240223463687,Muy ligera (< 5 mm),5.0
0021195120,25805,TIBACUY,CUNDINAMARCA,4.321357899,-74.48667274,0.6000000000000001,0.4,4,1,0.06983240223463687,Muy ligera (< 5 mm),5.0
0021195120,25878,VIOTÁ,CUNDINAMARCA,4.436054105,-74.48543339,0.6000000000000001,0.4,4,1,0.06983240223463687,Muy ligera (< 5 mm),5.0
0021195190,25535,PASCA,CUNDINAMARCA,4.293733611,-74.27396924,0.0,0.0,4,1,0.09090909090909091,Sin lluvia (0 mm),5.0
0021197010,25120,CABRERA,CUNDINAMARCA,3.91861924,-74.44615606,0.0,0.0,5,1,0.16265060240963855,Sin lluvia (0 mm),5.0
0021197010,25506,VENECIA,CUNDINAMARCA,4.063342074,-74.45259796,0.0,0.0,5,1,0.16265060240963855,Sin lluvia (0 mm),5.0
0021197030,25053,ARBELÁEZ,CUNDINAMARCA,4.232786985,-74.39576291,0.0,0.0,3,1,0.07692307692307693,Sin lluvia (0 mm),5.0
0021197030,25524,PANDI,CUNDINAMARCA,4.180497268,-74.4711213,0.0,0.0,3,1,0.07692307692307693,Sin lluvia (0 mm),5.0
0021197030,25649,SAN BERNARDO,CUNDINAMARCA,4.140958464,-74.35397692,0.0,0.0,3,1,0.07692307692307693,Sin lluvia (0 mm),5.0
0021197030,73352,ICONONZO,TOLIMA,4.133276369,-74.53964257,0.0,0.0,3,1,0.07692307692307693,Sin lluvia (0 mm),5.0
0021197080,25740,SIBATÉ,CUNDINAMARCA,4.465970004,-74.26328963,1.8,0.6,3,1,0.06463878326996197,Muy ligera (< 5 mm),5.0
0021197080,25743,SILVANIA,CUNDINAMARCA,4.436967141,-74.37050903,1.8,0.6,3,1,0.06463878326996197,Muy ligera (< 5 mm),5.0
0021205420,25286,FUNZA,CUNDINAMARCA,4.743996711,-74.19865992,0.0,0.0,3,0,0.046052631578947366,Sin lluvia (0 mm),5.0
0021205420,25430,MADRID,CUNDINAMARCA,4.75156751,-74.2896305,0.0,0.0,3,0,0.046052631578947366,Sin lluvia (0 mm),5.0
0021205420,25473,MOSQUERA,CUNDINAMARCA,4.672714223,-74.23573194,0.0,0.0,3,0,0.046052631578947366,Sin lluvia (0 mm),5.0
0021205660,25035,ANAPOIMA,CUNDINAMARCA,4.559962881,-74.5256953,0.0,0.0,4,1,0.061452513966480445,Sin lluvia (0 mm),5.0
0021205660,25245,EL COLEGIO,CUNDINAMARCA,4.556947085,-74.42658478,0.0,0.0,4,1,0.061452513966480445,Sin lluvia (0 mm),5.0
0021205660,25368,JERUSALÉN,CUNDINAMARCA,4.571350254,-74.68915854,0.0,0.0,4,1,0.061452513966480445,Sin lluvia (0 mm),5.0
0021205660,25599,APULO,CUNDINAMARCA,4.537711619,-74.59124656,0.0,0.0,4,1,0.061452513966480445,Sin lluvia (0 mm),5.0
0021205660,25815,TOCAIMA,CUNDINAMARCA,4.452072974,-74.64864406,0.0,0.0,4,1,0.061452513966480445,Sin lluvia (0 mm),5.0
0021205670,25040,ANOLAIMA,CUNDINAMARCA,4.789313614,-74.46194256,1.0,0.5,6,1,0.06489675516224189,Muy ligera (< 5 mm),5.0
0021205670,25095,BITUIMA,CUNDINAMARCA,4.847821091,-74.52862766,1.0,0.5,6,1,0.06489675516224189,Muy ligera (< 5 mm),5.0
0021205670,25123,CACHIPAY,CUNDINAMARCA,4.723063341,-74.45919528,1.0,0.5,6,1,0.06489675516224189,Muy ligera (< 5 mm),5.0
0021205670,25662,SAN JUAN DE RIOSECO,CUNDINAMARCA,4.814537831,-74.61525985,1.0,0.5,6,1,0.06489675516224189,Muy ligera (< 5 mm),5.0
0021205670,25898,ZIPACÓN,CUNDINAMARCA,4.75432173,-74.38673444,1.0,0.5,6,1,0.06489675516224189,Muy ligera (< 5 mm),5.0
0021205700,25326,GUATAVITA,CUNDINAMARCA,4.91158717,-73.78648564,0.0,0.0,3,1,0.09278350515463918,Sin lluvia (0 mm),5.0
0021205910,25126,CAJICÁ,CUNDINAMARCA,4.930402779,-74.02985115,3.4,1.4,4,1,0.07799442896935933,Muy ligera (< 5 mm),5.203394665586845
0021205910,25769,SUBACHOQUE,CUNDINAMARCA,4.970358034,-74.15689923,3.4,1.4,4,1,0.07799442896935933,Muy ligera (< 5 mm),5.203394665586845
0021205910,25785,TABIO,CUNDINAMARCA,4.951520046,-74.08449648,3.4,1.4,4,1,0.07799442896935933,Muy ligera (< 5 mm),5.203394665586845
0021205910,25817,TOCANCIPÁ,CUNDINAMARCA,4.968852913,-73.92887021,3.4,1.4,4,1,0.07799442896935933,Muy ligera (< 5 mm),5.203394665586845
0021205940,25019,ALBÁN,CUNDINAMARCA,4.891121638,-74.44278432,0.0,0.0,4,1,0.08123249299719888,Sin lluvia (0 mm),5.0
0021205940,25269,FACATATIVÁ,CUNDINAMARCA,4.834052334,-74.3380229,0.0,0.0,4,1,0.08123249299719888,Sin lluvia (0 mm),5.0
0021205940,25328,GUAYABAL DE SÍQUIMA,CUNDINAMARCA,4.866310254,-74.4767709,0.0,0.0,4,1,0.08123249299719888,Sin lluvia (0 mm),5.0
0021205970,25295,GACHANCIPÁ,CUNDINAMARCA,5.01001953,-73.87671759,0.0,0.0,4,1,0.07614213197969544,Sin lluvia (0 mm),5.0
0021205970,25486,NEMOCÓN,CUNDINAMARCA,5.093705358,-73.88380238,0.0,0.0,4,1,0.07614213197969544,Sin lluvia (0 mm),5.0
0021205970,25772,SUESCA,CUNDINAMARCA,5.122728461,-73.82427313,0.0,0.0,4,1,0.07614213197969544,Sin lluvia (0 mm),5.0
0021206280,25099,BOJACÁ,CUNDINAMARCA,4.705576252,-74.3354077,0.0,0.0,3,0,0.05397727272727273,Sin lluvia (0 mm),5.0
0021206280,25312,GRANADA,CUNDINAMARCA,4.523484884,-74.33724619,0.0,0.0,3,0,0.05397727272727273,Sin lluvia (0 mm),5.0
0021206280,25645,SAN ANTONIO DEL TEQUENDAMA,CUNDINAMARCA,4.599741357,-74.34490342,0.0,0.0,3,0,0.05397727272727273,Sin lluvia (0 mm),5.0
0021206280,25797,TENA,CUNDINAMARCA,4.666608192,-74.36764956,0.0,0.0,3,0,0.05397727272727273,Sin lluvia (0 mm),5.0
0021206560,25754,SOACHA,CUNDINAMARCA,4.581866267,-74.24029696,0.0,0.0,5,1,0.6,Sin lluvia (0 mm),5.0
0021206600,25214,COTA,CUNDINAMARCA,4.76754674,-74.1415583,0.0,0.0,5,1,0.10550458715596331,Sin lluvia (0 mm),5.0
0021206600,25799,TENJO,CUNDINAMARCA,4.838548601,-74.14680287,0.0,0.0,5,1,0.10550458715596331,Sin lluvia (0 mm),5.0
0021206920,11001,"BOGOTÁ, D.C.","BOGOTÁ, D.C.",4.316107698,-74.1810727,0.2,0.1,4,1,0.13131313131313133,Muy ligera (< 5 mm),5.0
0021206930,25200,COGUA,CUNDINAMARCA,5.103127532,-73.97536559,0.0,0.0,4,1,0.14857142857142858,Sin lluvia (0 mm),5.0
0021206930,25899,ZIPAQUIRÁ,CUNDINAMARCA,5.06631685,-74.04960323,0.0,0.0,4,1,0.14857142857142858,Sin lluvia (0 mm),5.0
0021206950,15835,TURMEQUÉ,BOYACÁ,5.305697418,-73.50908714,0.0,0.0,4,1,0.2962962962962963,Sin lluvia (0 mm),5.0
0021206950,15842,ÚMBITA,BOYACÁ,5.217241368,-73.46338477,0.0,0.0,4,1,0.2962962962962963,Sin lluvia (0 mm),5.0
0021206950,25873,VILLAPINZÓN,CUNDINAMARCA,5.227298709,-73.57725921,0.0,0.0,4,1,0.2962962962962963,Sin lluvia (0 mm),5.0
0021206980,25322,GUASCA,CUNDINAMARCA,4.801276832,-73.84643485,0.1,0.1,5,1,0.28125,Muy ligera (< 5 mm),5.0
0021206980,25377,LA CALERA,CUNDINAMARCA,4.700785443,-73.92939921,0.1,0.1,5,1,0.28125,Muy ligera (< 5 mm),5.0
0021209920,25183,CHOCONTÁ,CUNDINAMARCA,5.118419271,-73.68068583,0.0,0.0,6,1,0.2146341463414634,Sin lluvia (0 mm),5.0
0021209920,25736,SESQUILÉ,CUNDINAMARCA,5.000633875,-73.77206544,0.0,0.0,6,1,0.2146341463414634,Sin lluvia (0 mm),5.0
0021215160,73001,IBAGUÉ,TOLIMA,4.451921427,-75.252591,0.0,0.0,4,0,0.049271339347675226,Sin lluvia (0 mm),5.0
0021215190,73124,CAJAMARCA,TOLIMA,4.406971283,-75.49745918,0.0,0.0,4,1,0.20891364902506965,Sin lluvia (0 mm),5.0
0021227010,25324,GUATAQUÍ,CUNDINAMARCA,4.516381655,-74.78257788,3.6,1.2,5,0,0.04216867469879518,Muy ligera (< 5 mm),5.338968764848425
0021227010,73026,ALVARADO,TOLIMA,4.582625784,-74.98630686,3.6,1.2,5,0,0.04216867469879518,Muy ligera (< 5 mm),5.338968764848425
0021227010,73547,PIEDRAS,TOLIMA,4.433764446,-74.99879938,3.6,1.2,5,0,0.04216867469879518,Muy ligera (< 5 mm),5.338968764848425
0021235030,25001,AGUA DE DIOS,CUNDINAMARCA,4.372744676,-74.67111051,0.0,0.0,6,1,0.10891089108910891,Sin lluvia (0 mm),5.0
0021235030,25307,GIRARDOT,CUNDINAMARCA,4.338154518,-74.81143922,0.0,0.0,6,1,0.10891089108910891,Sin lluvia (0 mm),5.0
0021235030,25612,RICAURTE,CUNDINAMARCA,4.307363489,-74.72943403,0.0,0.0,6,1,0.10891089108910891,Sin lluvia (0 mm),5.0
0021235030,73275,FLANDES,TOLIMA,4.242813257,-74.83708638,0.0,0.0,6,1,0.10891089108910891,Sin lluvia (0 mm),5.0
0021237010,25483,NARIÑO,CUNDINAMARCA,4.407952015,-74.80565317,5.0,4.6,4,1,0.05705604321404457,Ligera (5–15 mm),6.189531203042384
0021237010,73200,COELLO,TOLIMA,4.315603867,-74.91470256,5.0,4.6,4,1,0.05705604321404457,Ligera (5–15 mm),6.189531203042384
0021245140,73686,SANTA ISABEL,TOLIMA,4.740827622,-75.20069946,0.0,0.0,2,1,0.05982905982905983,Sin lluvia (0 mm),5.0
0021255090,73055,ARMERO,TOLIMA,5.006758956,-74.84750095,0.0,0.0,4,1,0.1111111111111111,Sin lluvia (0 mm),5.0
0021255090,73270,FALAN,TOLIMA,5.079256598,-74.95703372,0.0,0.0,4,1,0.1111111111111111,Sin lluvia (0 mm),5.0
0021255160,25086,BELTRÁN,CUNDINAMARCA,4.791721105,-74.71491399,0.0,0.0,4,0,0.03915461624026696,Sin lluvia (0 mm),5.0
0021255160,25580,PULÍ,CUNDINAMARCA,4.691336253,-74.68074404,0.0,0.0,4,0,0.03915461624026696,Sin lluvia (0 mm),5.0
0021255160,73030,AMBALEMA,TOLIMA,4.803365246,-74.80998676,0.0,0.0,4,0,0.03915461624026696,Sin lluvia (0 mm),5.0
0021255160,73861,VENADILLO,TOLIMA,4.70988172,-74.92089886,0.0,0.0,4,0,0.03915461624026696,Sin lluvia (0 mm),5.0
0021255170,73461,MURILLO,TOLIMA,4.826734468,-75.21993987,0.1,0.1,4,1,0.06876790830945559,Muy ligera (< 5 mm),5.0
0021257090,73408,LÉRIDA,TOLIMA,4.866034592,-74.92337178,0.0,0.0,4,1,0.06382978723404255,Sin lluvia (0 mm),5.0
0021257120,73152,CASABIANCA,TOLIMA,5.007003948,-75.19457703,0.0,0.0,4,1,0.10638297872340426,Sin lluvia (0 mm),5.0
0021257120,73411,LÍBANO,TOLIMA,4.877936755,-75.04763076,0.0,0.0,4,1,0.10638297872340426,Sin lluvia (0 mm),5.0
0021257120,73870,VILLAHERMOSA,TOLIMA,4.965753461,-75.15592969,0.0,0.0,4,1,0.10638297872340426,Sin lluvia (0 mm),5.0
0022017020,73067,ATACO,TOLIMA,3.37749064,-75.61373257,5.2,4.0,2,1,0.054441260744985676,Ligera (5–15 mm),6.29974193703073
0022017020,73616,RIOBLANCO,TOLIMA,3.468077548,-75.85481103,5.2,4.0,2,1,0.054441260744985676,Ligera (5–15 mm),6.29974193703073
0022020020,73555,PLANADAS,TOLIMA,3.09897343,-75.81684413,0.0,0.0,4,1,0.06666666666666667,Sin lluvia (0 mm),5.0
0022057010,73217,COYAIMA,TOLIMA,3.775490271,-75.14720213,0.0,0.0,4,1,0.15384615384615385,Sin lluvia (0 mm),5.0
0022057010,73504,ORTEGA,TOLIMA,3.937793962,-75.27824314,0.0,0.0,4,1,0.15384615384615385,Sin lluvia (0 mm),5.0
0022057010,73678,SAN LUIS,TOLIMA,4.057271684,-75.16320806,0.0,0.0,4,1,0.15384615384615385,Sin lluvia (0 mm),5.0
0022065040,73168,CHAPARRAL,TOLIMA,3.743693084,-75.58986634,0.0,0.0,5,1,0.13157894736842105,Sin lluvia (0 mm),5.0
0022065040,73675,SAN ANTONIO,TOLIMA,3.926088268,-75.50991004,0.0,0.0,5,1,0.13157894736842105,Sin lluvia (0 mm),5.0
0022075050,63302,GÉNOVA,QUINDÍO,4.180107773,-75.76056695,0.1,0.1,4,1,0.23943661971830985,Muy ligera (< 5 mm),5.0
0022077030,73622,RONCESVALLES,TOLIMA,4.097861181,-75.59428027,0.2,0.2,2,1,0.06,Muy ligera (< 5 mm),5.0
0022077050,73624,ROVIRA,TOLIMA,4.216730954,-75.34758364,0.0,0.0,4,1,0.06818181818181818,Sin lluvia (0 mm),5.0
0023017040,73349,HONDA,TOLIMA,5.179416561,-74.78303094,0.0,0.0,4,0,0.05434782608695652,Sin lluvia (0 mm),5.0
0023017040,73443,SAN SEBASTIÁN DE MARIQUITA,TOLIMA,5.235322593,-74.90668089,0.0,0.0,4,0,0.05434782608695652,Sin lluvia (0 mm),5.0
0023025040,17867,VICTORIA,CALDAS,5.447542859,-74.83622502,54.4,25.0,4,1,0.0761904761904762,Fuerte (30–60 mm),18.1192726287147
0023035030,25572,PUERTO SALGAR,CUNDINAMARCA,5.619752748,-74.5801923,0.0,0.0,5,1,0.11888111888111888,Sin lluvia (0 mm),5.0
0023037010,17380,LA DORADA,CALDAS,5.410515691,-74.72114262,0.1,0.1,4,0,0.028080229226361032,Muy ligera (< 5 mm),5.0
0023037010,25148,CAPARRAPÍ,CUNDINAMARCA,5.381501399,-74.52123595,0.1,0.1,4,0,0.028080229226361032,Muy ligera (< 5 mm),5.0
0023050420,5055,ARGELIA,ANTIOQUIA,5.708114524,-75.09469795,30.099999999999998,25.4,4,1,0.21825396825396826,Fuerte (30–60 mm),13.882771569680065
0023050420,5483,NARIÑO,ANTIOQUIA,5.581275312,-75.19457019,30.099999999999998,25.4,4,1,0.21825396825396826,Fuerte (30–60 mm),13.882771569680065
0023057140,5756,SONSÓN,ANTIOQUIA,5.826388779,-74.83637623,0.0,0.0,4,0,0.04862953138815208,Sin lluvia (0 mm),5.0
0023057140,17495,NORCASIA,CALDAS,5.638062349,-74.85492707,0.0,0.0,4,0,0.04862953138815208,Sin lluvia (0 mm),5.0
0023065110,25885,YACOPÍ,CUNDINAMARCA,5.591910157,-74.36480865,3.6000000000000005,1.6,4,1,0.0625,Muy ligera (< 5 mm),5.338968764848425
0023065120,25513,PACHO,CUNDINAMARCA,5.168367634,-74.16336544,0.0,0.0,5,1,0.07142857142857142,Sin lluvia (0 mm),5.0
0023065120,25777,SUPATÁ,CUNDINAMARCA,5.061692703,-74.23138328,0.0,0.0,5,1,0.07142857142857142,Sin lluvia (0 mm),5.0
0023065120,25871,VILLAGÓMEZ,CUNDINAMARCA,5.270694636,-74.19074375,0.0,0.0,5,1,0.07142857142857142,Sin lluvia (0 mm),5.0
0023065180,25718,SASAIMA,CUNDINAMARCA,4.946805263,-74.41230921,1.2000000000000002,1.1,5,1,0.21084337349397592,Muy ligera (< 5 mm),5.0
0023065180,25875,VILLETA,CUNDINAMARCA,5.011670402,-74.48764746,1.2000000000000002,1.1,5,1,0.21084337349397592,Muy ligera (< 5 mm),5.0
0023065190,25592,QUEBRADANEGRA,CUNDINAMARCA,5.09998103,-74.4945107,0.0,0.0,5,1,0.12878787878787878,Sin lluvia (0 mm),5.0
0023065190,25851,ÚTICA,CUNDINAMARCA,5.192795708,-74.47780003,0.0,0.0,5,1,0.12878787878787878,Sin lluvia (0 mm),5.0
0023067040,5591,PUERTO TRIUNFO,ANTIOQUIA,5.954830151,-74.6861918,0.0,0.0,4,1,0.07692307692307693,Sin lluvia (0 mm),5.0
0023067040,15572,PUERTO BOYACÁ,BOYACÁ,5.953466654,-74.4528581,0.0,0.0,4,1,0.07692307692307693,Sin lluvia (0 mm),5.0
0023067050,25320,GUADUAS,CUNDINAMARCA,5.173554764,-74.64014651,0.0,0.0,3,1,0.059113300492610835,Sin lluvia (0 mm),5.0
0023067060,25489,NIMAIMA,CUNDINAMARCA,5.121445325,-74.39737048,0.0,0.0,5,0,0.04827586206896552,Sin lluvia (0 mm),5.0
0023067060,25491,NOCAIMA,CUNDINAMARCA,5.066110761,-74.38975476,0.0,0.0,5,0,0.04827586206896552,Sin lluvia (0 mm),5.0
0023067080,25258,EL PEÑÓN,CUNDINAMARCA,5.261728244,-74.30830564,19.6,6.6,3,1,0.08148148148148149,Moderada (15–30 mm),11.445545253588914
0023067080,25394,LA PALMA,CUNDINAMARCA,5.333400646,-74.40807863,19.6,6.6,3,1,0.08148148148148149,Moderada (15–30 mm),11.445545253588914
0023067080,25398,LA PEÑA,CUNDINAMARCA,5.20459882,-74.40786611,19.6,6.6,3,1,0.08148148148148149,Moderada (15–30 mm),11.445545253588914
0023067080,25823,TOPAIPÍ,CUNDINAMARCA,5.355688386,-74.28963994,19.6,6.6,3,1,0.08148148148148149,Moderada (15–30 mm),11.445545253588914
0023067080,25862,VERGARA,CUNDINAMARCA,5.131267542,-74.30979229,19.6,6.6,3,1,0.08148148148148149,Moderada (15–30 mm),11.445545253588914
0023085160,5021,ALEJANDRÍA,ANTIOQUIA,6.365534125,-75.09059702,18.8,4.0,2,1,0.05730659025787966,Moderada (15–30 mm),11.232910197408458
0023085160,5079,BARBOSA,ANTIOQUIA,6.443417935,-75.32924085,18.8,4.0,2,1,0.05730659025787966,Moderada (15–30 mm),11.232910197408458
0023085160,5206,CONCEPCIÓN,ANTIOQUIA,6.376106187,-75.21785901,18.8,4.0,2,1,0.05730659025787966,Moderada (15–30 mm),11.232910197408458
0023085160,5321,GUATAPÉ,ANTIOQUIA,6.236329826,-75.15651272,18.8,4.0,2,1,0.05730659025787966,Moderada (15–30 mm),11.232910197408458
0023085160,5541,PEÑOL,ANTIOQUIA,6.232396368,-75.22350906,18.8,4.0,2,1,0.05730659025787966,Moderada (15–30 mm),11.232910197408458
0023085160,5674,SAN VICENTE FERRER,ANTIOQUIA,6.310387522,-75.32740163,18.8,4.0,2,1,0.05730659025787966,Moderada (15–30 mm),11.232910197408458
0023085220,5197,COCORNÁ,ANTIOQUIA,6.005593074,-75.16015403,33.2,5.4,2,0,0.04871060171919771,Fuerte (30–60 mm),14.508863417264656
0023085220,5313,GRANADA,ANTIOQUIA,6.123380721,-75.12763646,33.2,5.4,2,0,0.04871060171919771,Fuerte (30–60 mm),14.508863417264656
0023085220,5649,SAN CARLOS,ANTIOQUIA,6.193789659,-74.90732769,33.2,5.4,2,0,0.04871060171919771,Fuerte (30–60 mm),14.508863417264656
0023085220,5667,SAN RAFAEL,ANTIOQUIA,6.31074453,-74.99858652,33.2,5.4,2,0,0.04871060171919771,Fuerte (30–60 mm),14.508863417264656
0023085260,5376,LA CEJA,ANTIOQUIA,5.992524843,-75.43086935,0.0,0.0,4,1,0.06424581005586592,Sin lluvia (0 mm),5.0
0023085260,5615,RIONEGRO,ANTIOQUIA,6.150785807,-75.41076052,0.0,0.0,4,1,0.06424581005586592,Sin lluvia (0 mm),5.0
0023085270,5318,GUARNE,ANTIOQUIA,6.266625703,-75.43730801,0.0,0.0,5,1,0.15184381778741865,Sin lluvia (0 mm),5.0
0023087160,5670,SAN ROQUE,ANTIOQUIA,6.466165211,-74.9450732,0.2,0.2,4,1,0.06896551724137931,Muy ligera (< 5 mm),5.0
0023087190,5652,SAN FRANCISCO,ANTIOQUIA,5.840093731,-74.98176334,1.0,0.2,3,0,0.04,Muy ligera (< 5 mm),5.0
0023087190,5660,SAN LUIS,ANTIOQUIA,6.024205956,-75.0076674,1.0,0.2,3,0,0.04,Muy ligera (< 5 mm),5.0
0023087210,5142,CARACOLÍ,ANTIOQUIA,6.33797388,-74.73354817,2.2,1.2,4,1,0.1595744680851064,Muy ligera (< 5 mm),5.0
0023087210,5585,PUERTO NARE,ANTIOQUIA,6.126539139,-74.70317722,2.2,1.2,4,1,0.1595744680851064,Muy ligera (< 5 mm),5.0
0023087670,5440,MARINILLA,ANTIOQUIA,6.18520515,-75.30487933,0.2,0.2,2,1,0.06303724928366762,Muy ligera (< 5 mm),5.0
0023087670,5697,EL SANTUARIO,ANTIOQUIA,6.124209495,-75.25212278,0.2,0.2,2,1,0.06303724928366762,Muy ligera (< 5 mm),5.0
0023097030,5579,PUERTO BERRÍO,ANTIOQUIA,6.481922267,-74.5287421,0.0,0.0,3,1,0.06640625,Sin lluvia (0 mm),5.0
0023105070,5425,MACEO,ANTIOQUIA,6.534573585,-74.71410854,0.0,0.0,4,0,0.03848750844024308,Sin lluvia (0 mm),5.0
0023105070,5885,YALÍ,ANTIOQUIA,6.716870679,-74.75565002,0.0,0.0,4,0,0.03848750844024308,Sin lluvia (0 mm),5.0
0023125080,15507,OTANCHE,BOYACÁ,5.753787787,-74.19719423,8.4,1.6,2,0,0.05157593123209169,Ligera (5–15 mm),7.817122783068612
0023125080,15580,QUÍPAMA,BOYACÁ,5.595729831,-74.26857067,8.4,1.6,2,0,0.05157593123209169,Ligera (5–15 mm),7.817122783068612
0023125100,15109,BUENAVISTA,BOYACÁ,5.489399419,-73.95066255,0.2,0.2,2,1,0.06303724928366762,Muy ligera (< 5 mm),5.0
0023125120,68101,BOLÍVAR,SANTANDER,6.181715586,-73.92065703,1.9,0.5,2,0,0.05105105105105105,Muy ligera (< 5 mm),5.0
0023125120,68250,EL PEÑÓN,SANTANDER,6.123389691,-74.00040397,1.9,0.5,2,0,0.05105105105105105,Muy ligera (< 5 mm),5.0
0023125120,68385,LANDÁZURI,SANTANDER,6.385234814,-73.78760899,1.9,0.5,2,0,0.05105105105105105,Muy ligera (< 5 mm),5.0
0023125140,15401,LA VICTORIA,BOYACÁ,5.507008121,-74.24162727,0.0,0.0,4,0,0.04198473282442748,Sin lluvia (0 mm),5.0
0023125140,15480,MUZO,BOYACÁ,5.539429272,-74.11177139,0.0,0.0,4,0,0.04198473282442748,Sin lluvia (0 mm),5.0
0023125140,25518,PAIME,CUNDINAMARCA,5.387647345,-74.16395696,0.0,0.0,4,0,0.04198473282442748,Sin lluvia (0 mm),5.0
0023125160,15106,BRICEÑO,BOYACÁ,5.673229265,-73.92660705,12.3,8.3,2,0,0.049735703988467085,Ligera (5–15 mm),9.280653427249304
0023125160,15442,MARIPÍ,BOYACÁ,5.569810633,-74.02003127,12.3,8.3,2,0,0.049735703988467085,Ligera (5–15 mm),9.280653427249304
0023125160,15531,PAUNA,BOYACÁ,5.688801559,-74.00504122,12.3,8.3,2,0,0.049735703988467085,Ligera (5–15 mm),9.280653427249304
0023125160,15681,SAN PABLO DE BORBUR,BOYACÁ,5.677345066,-74.11403749,12.3,8.3,2,0,0.049735703988467085,Ligera (5–15 mm),9.280653427249304
0023125160,15832,TUNUNGUÁ,BOYACÁ,5.720301516,-73.94330927,12.3,8.3,2,0,0.049735703988467085,Ligera (5–15 mm),9.280653427249304
0023125160,68271,FLORIÁN,SANTANDER,5.801106291,-73.95524931,12.3,8.3,2,0,0.049735703988467085,Ligera (5–15 mm),9.280653427249304
0023125160,68377,LA BELLEZA,SANTANDER,5.895724341,-74.04676575,12.3,8.3,2,0,0.049735703988467085,Ligera (5–15 mm),9.280653427249304
0023125170,15212,COPER,BOYACÁ,5.452461072,-74.05996578,0.1,0.1,5,1,0.10256410256410256,Muy ligera (< 5 mm),5.0
0023125170,25653,SAN CAYETANO,CUNDINAMARCA,5.314600423,-74.07232077,0.1,0.1,5,1,0.10256410256410256,Muy ligera (< 5 mm),5.0
0023127060,68190,CIMITARRA,SANTANDER,6.40972961,-74.17030427,0.0,0.0,3,0,0.034782608695652174,Sin lluvia (0 mm),5.0
0023145501,68235,EL CARMEN DE CHUCURÍ,SANTANDER,6.664260002,-73.56475288,0.10000000000000002,0.1,3,1,0.08797653958944282,Muy ligera (< 5 mm),5.0
0023147020,5893,YONDÓ,ANTIOQUIA,6.925159318,-74.15824041,22.8,12.4,2,1,0.06017191977077364,Moderada (15–30 mm),12.251575363817604
0023147020,68573,PUERTO PARRA,SANTANDER,6.685278856,-73.95761256,22.8,12.4,2,1,0.06017191977077364,Moderada (15–30 mm),12.251575363817604
0023155030,68081,BARRANCABERMEJA,SANTANDER,7.054074558,-73.78211646,9.7,2.5,3,1,0.07859078590785908,Ligera (5–15 mm),8.340047711413785
0023175020,5604,REMEDIOS,ANTIOQUIA,6.997267375,-74.55865652,0.0,0.0,2,1,0.05714285714285714,Sin lluvia (0 mm),5.0
0023175020,5858,VEGACHÍ,ANTIOQUIA,6.836535122,-74.7540302,0.0,0.0,2,1,0.05714285714285714,Sin lluvia (0 mm),5.0
0023180070,68615,RIONEGRO,SANTANDER,7.474226085,-73.37246417,0.0,0.0,2,0,0.04354354354354354,Sin lluvia (0 mm),5.0
0023180070,68655,SABANA DE TORRES,SANTANDER,7.4065422,-73.57131807,0.0,0.0,2,0,0.04354354354354354,Sin lluvia (0 mm),5.0
0023190130,68169,CHARTA,SANTANDER,7.282973001,-72.97829057,0.4,0.2,5,1,0.06666666666666667,Muy ligera (< 5 mm),5.0
0023190130,68820,TONA,SANTANDER,7.170891099,-72.93970443,0.4,0.2,5,1,0.06666666666666667,Muy ligera (< 5 mm),5.0
0023190440,68406,LEBRIJA,SANTANDER,7.204060063,-73.29138097,17.1,6.3,1,1,0.07874015748031496,Moderada (15–30 mm),10.763896282711055
0023190700,68547,PIEDECUESTA,SANTANDER,6.97082104,-73.01481196,0.6000000000000001,0.2,4,1,0.07520891364902507,Muy ligera (< 5 mm),5.0
0023190700,68705,SANTA BÁRBARA,SANTANDER,6.988084711,-72.89608933,0.6000000000000001,0.2,4,1,0.07520891364902507,Muy ligera (< 5 mm),5.0
0023195040,68001,BUCARAMANGA,SANTANDER,7.155833544,-73.11156997,0.1,0.1,1,0,0.051829268292682924,Muy ligera (< 5 mm),5.0
0023195110,68307,GIRÓN,SANTANDER,6.976734127,-73.205267,1.0,0.2,5,0,0.05042016806722689,Muy ligera (< 5 mm),5.0
0023195200,68255,EL PLAYÓN,SANTANDER,7.524284721,-73.18158192,0.1,0.1,4,1,0.06688963210702341,Muy ligera (< 5 mm),5.0
0023195200,68444,MATANZA,SANTANDER,7.348778319,-73.05438997,0.1,0.1,4,1,0.06688963210702341,Muy ligera (< 5 mm),5.0
0023195200,68780,SURATÁ,SANTANDER,7.475402063,-72.98779966,0.1,0.1,4,1,0.06688963210702341,Muy ligera (< 5 mm),5.0
0023195240,20011,AGUACHICA,CESAR,8.248735219,-73.6227405,0.0,0.0,4,1,0.05581395348837209,Sin lluvia (0 mm),5.0
0023195240,20770,SAN MARTÍN,CESAR,7.937788454,-73.54436312,0.0,0.0,4,1,0.05581395348837209,Sin lluvia (0 mm),5.0
0023197690,68418,LOS SANTOS,SANTANDER,6.812162934,-73.10785086,3.1,0.9,4,0,0.03299152920196166,Muy ligera (< 5 mm),5.0
0023205020,13670,SAN PABLO,BOLÍVAR,7.507922612,-74.10356977000001,0.0,0.0,2,1,0.05730659025787966,Sin lluvia (0 mm),5.0
0023205020,13688,SANTA ROSA DEL SUR,BOLÍVAR,7.772519173,-74.26272843,0.0,0.0,2,1,0.05730659025787966,Sin lluvia (0 mm),5.0
0023205020,68575,PUERTO WILCHES,SANTANDER,7.398198257,-73.8354696,0.0,0.0,2,1,0.05730659025787966,Sin lluvia (0 mm),5.0
0023217080,13042,ARENAL,BOLÍVAR,8.362996158,-74.10301905,0.0,0.0,4,0,0.03513394817742644,Sin lluvia (0 mm),5.0
0023217080,13473,MORALES,BOLÍVAR,8.253700061,-73.9713459,0.0,0.0,4,0,0.03513394817742644,Sin lluvia (0 mm),5.0
0023217080,13490,NOROSÍ,BOLÍVAR,8.50613476,-74.11588912,0.0,0.0,4,0,0.03513394817742644,Sin lluvia (0 mm),5.0
0023217080,13600,RÍO VIEJO,BOLÍVAR,8.559982465,-73.90298668,0.0,0.0,4,0,0.03513394817742644,Sin lluvia (0 mm),5.0
0023217080,20295,GAMARRA,CESAR,8.337726622,-73.70649199,0.0,0.0,4,0,0.03513394817742644,Sin lluvia (0 mm),5.0
0023217080,20383,LA GLORIA,CESAR,8.588002247,-73.61602384,0.0,0.0,4,0,0.03513394817742644,Sin lluvia (0 mm),5.0
0024015110,25781,SUTATAUSA,CUNDINAMARCA,5.242909347,-73.85540343,23.0,12.3,4,1,0.07608695652173914,Moderada (15–30 mm),12.299820709838338
0024015110,25843,VILLA DE SAN DIEGO DE UBATÉ,CUNDINAMARCA,5.316080652,-73.82010566,23.0,12.3,4,1,0.07608695652173914,Moderada (15–30 mm),12.299820709838338
0024015300,15407,VILLA DE LEYVA,BOYACÁ,5.665762424,-73.514948,0.0,0.0,4,1,0.060836501901140684,Sin lluvia (0 mm),5.0
0024015300,15638,SÁCHICA,BOYACÁ,5.573464882,-73.543102,0.0,0.0,4,1,0.060836501901140684,Sin lluvia (0 mm),5.0
0024015380,25154,CARMEN DE CARUPA,CUNDINAMARCA,5.338856556,-73.92614817,10.8,4.2,4,1,0.05668016194331984,Ligera (5–15 mm),8.753101100153083
0024015509,15051,ARCABUCO,BOYACÁ,5.73526424,-73.42793109,11.4,4.5,3,1,0.1457142857142857,Ligera (5–15 mm),8.968678121482588
0024015510,68209,CONFINES,SANTANDER,6.342314443,-73.25014013,0.7,0.7,4,1,0.12571428571428572,Muy ligera (< 5 mm),5.0
0024015510,68524,PALMAS DEL SOCORRO,SANTANDER,6.391750107,-73.28273174,0.7,0.7,4,1,0.12571428571428572,Muy ligera (< 5 mm),5.0
0024015511,68770,SUAITA,SANTANDER,6.101499739,-73.36225795,17.4,10.8,2,1,0.06017191977077364,Moderada (15–30 mm),10.848468104220569
0024015512,15185,CHITARAQUE,BOYACÁ,5.984394625,-73.42582375,0.7000000000000001,0.4,2,0,0.02040816326530612,Muy ligera (< 5 mm),5.0
0024015512,68298,GÁMBITA,SANTANDER,5.924383558,-73.31939934,0.7000000000000001,0.4,2,0,0.02040816326530612,Muy ligera (< 5 mm),5.0
0024015514,68211,CONTRATACIÓN,SANTANDER,6.303116611,-73.50211527,21.6,10.4,2,1,0.06,Moderada (15–30 mm),11.957088474250298
0024015514,68245,EL GUACAMAYO,SANTANDER,6.236115743,-73.4977605,21.6,10.4,2,1,0.06,Moderada (15–30 mm),11.957088474250298
0024015514,68320,GUADALUPE,SANTANDER,6.233278248,-73.40977445,21.6,10.4,2,1,0.06,Moderada (15–30 mm),11.957088474250298
0024015515,68500,OIBA,SANTANDER,6.225596216,-73.27961515,3.1,1.3,2,0,0.05142857142857143,Muy ligera (< 5 mm),5.0
0024015517,68176,CHIMA,SANTANDER,6.361627641,-73.40172144,8.0,3.5,2,1,0.06515580736543909,Ligera (5–15 mm),7.647363763915573
0024015517,68322,GUAPOTÁ,SANTANDER,6.319299865,-73.33115275,8.0,3.5,2,1,0.06515580736543909,Ligera (5–15 mm),7.647363763915573
0024015517,68720,SANTA HELENA DEL OPÓN,SANTANDER,6.40890734,-73.58206609,8.0,3.5,2,1,0.06515580736543909,Ligera (5–15 mm),7.647363763915573
0024015518,15131,CALDAS,BOYACÁ,5.575990669,-73.88057508,0.0,0.0,2,1,0.05714285714285714,Sin lluvia (0 mm),5.0
0024015518,15176,CHIQUINQUIRÁ,BOYACÁ,5.622488024,-73.80424531,0.0,0.0,2,1,0.05714285714285714,Sin lluvia (0 mm),5.0
0024015518,15676,SAN MIGUEL DE SEMA,BOYACÁ,5.532326922,-73.74715898,0.0,0.0,2,1,0.05714285714285714,Sin lluvia (0 mm),5.0
0024015518,25288,FÚQUENE,CUNDINAMARCA,5.416288902,-73.77059829,0.0,0.0,2,1,0.05714285714285714,Sin lluvia (0 mm),5.0
0024015518,25745,SIMIJACA,CUNDINAMARCA,5.509773128,-73.84519164,0.0,0.0,2,1,0.05714285714285714,Sin lluvia (0 mm),5.0
0024015518,25779,SUSA,CUNDINAMARCA,5.440092358,-73.82392529,0.0,0.0,2,1,0.05714285714285714,Sin lluvia (0 mm),5.0
0024017590,68324,GUAVATÁ,SANTANDER,5.944894844,-73.72173671,0.0,0.0,5,1,0.13043478260869565,Sin lluvia (0 mm),5.0
0024017590,68572,PUENTE NACIONAL,SANTANDER,5.831129906,-73.67841815,0.0,0.0,5,1,0.13043478260869565,Sin lluvia (0 mm),5.0
0024017590,68861,VÉLEZ,SANTANDER,6.00741043,-73.69057256,0.0,0.0,5,1,0.13043478260869565,Sin lluvia (0 mm),5.0
0024017600,15469,MONIQUIRÁ,BOYACÁ,5.863370485,-73.55852538,26.8,14.0,3,1,0.07917888563049853,Moderada (15–30 mm),13.175949208928117
0024017600,15664,SAN JOSÉ DE PARE,BOYACÁ,5.994154088,-73.54386522,26.8,14.0,3,1,0.07917888563049853,Moderada (15–30 mm),13.175949208928117
0024017600,15816,TOGÜÍ,BOYACÁ,5.921830062,-73.48921806,26.8,14.0,3,1,0.07917888563049853,Moderada (15–30 mm),13.175949208928117
0024017600,68077,BARBOSA,SANTANDER,5.955617327,-73.62345229,26.8,14.0,3,1,0.07917888563049853,Moderada (15–30 mm),13.175949208928117
0024017640,68745,SIMACOTA,SANTANDER,6.494231551,-73.45910992,7.2,2.4,5,1,0.08361204013377926,Ligera (5–15 mm),7.29324626233724
0024017640,68755,SOCORRO,SANTANDER,6.462088241,-73.24436001,7.2,2.4,5,1,0.08361204013377926,Ligera (5–15 mm),7.29324626233724
0024017707,15686,SANTANA,BOYACÁ,6.057614971,-73.48974828,0.0,0.0,2,0,0.0,Sin lluvia (0 mm),5.0
0024017707,68013,AGUADA,SANTANDER,6.182208476,-73.53038541,0.0,0.0,2,0,0.0,Sin lluvia (0 mm),5.0
0024017707,68179,CHIPATÁ,SANTANDER,6.067944658,-73.63239132,0.0,0.0,2,0,0.0,Sin lluvia (0 mm),5.0
0024017707,68327,GÜEPSA,SANTANDER,6.04656148,-73.57847854,0.0,0.0,2,0,0.0,Sin lluvia (0 mm),5.0
0024017707,68397,LA PAZ,SANTANDER,6.21737437,-73.62977195,0.0,0.0,2,0,0.0,Sin lluvia (0 mm),5.0
0024017707,68673,SAN BENITO,SANTANDER,6.076525355,-73.55295302,0.0,0.0,2,0,0.0,Sin lluvia (0 mm),5.0
0024017740,15293,GACHANTIVÁ,BOYACÁ,5.744105975,-73.5426552,16.4,8.2,4,1,0.06956521739130435,Moderada (15–30 mm),10.563333378829174
0024017740,15696,SANTA SOFÍA,BOYACÁ,5.731602716,-73.60366287,16.4,8.2,4,1,0.06956521739130435,Moderada (15–30 mm),10.563333378829174
0024017740,15776,SUTAMARCHÁN,BOYACÁ,5.640030759,-73.62598773,16.4,8.2,4,1,0.06956521739130435,Moderada (15–30 mm),10.563333378829174
0024017740,15808,TINJACÁ,BOYACÁ,5.577566497,-73.67614572,16.4,8.2,4,1,0.06956521739130435,Moderada (15–30 mm),10.563333378829174
0024025090,68464,MOGOTES,SANTANDER,6.492532315,-72.95834772,0.8,0.5,4,1,0.13127413127413126,Muy ligera (< 5 mm),5.0
0024025090,68682,SAN JOAQUÍN,SANTANDER,6.459879823,-72.85471883,0.8,0.5,4,1,0.13127413127413126,Muy ligera (< 5 mm),5.0
0024025502,68167,CHARALÁ,SANTANDER,6.35099819,-73.06101382,13.299999999999999,6.7,2,1,0.06017191977077364,Ligera (5–15 mm),9.612901519519358
0024025502,68498,OCAMONTE,SANTANDER,6.355368858,-73.12211833,13.299999999999999,6.7,2,1,0.06017191977077364,Ligera (5–15 mm),9.612901519519358
0024025503,68051,ARATOCA,SANTANDER,6.716766585,-73.01162697,0.0,0.0,2,1,0.06017191977077364,Sin lluvia (0 mm),5.0
0024025503,68160,CEPITÁ,SANTANDER,6.752465533,-72.92924629,0.0,0.0,2,1,0.06017191977077364,Sin lluvia (0 mm),5.0
0024025503,68229,CURITÍ,SANTANDER,6.608966483,-73.05897888,0.0,0.0,2,1,0.06017191977077364,Sin lluvia (0 mm),5.0
0024025503,68370,JORDÁN,SANTANDER,6.710814846,-73.1211236,0.0,0.0,2,1,0.06017191977077364,Sin lluvia (0 mm),5.0
0024025503,68679,SAN GIL,SANTANDER,6.550778765,-73.11887911,0.0,0.0,2,1,0.06017191977077364,Sin lluvia (0 mm),5.0
0024025503,68872,VILLANUEVA,SANTANDER,6.685867326,-73.16396916,0.0,0.0,2,1,0.06017191977077364,Sin lluvia (0 mm),5.0
0024025504,68217,COROMORO,SANTANDER,6.234735779,-72.98176803,26.600000000000005,18.2,3,1,0.12680115273775217,Moderada (15–30 mm),13.131610459878946
0024025504,68264,ENCINO,SANTANDER,6.079061224,-73.06206665,26.600000000000005,18.2,3,1,0.12680115273775217,Moderada (15–30 mm),13.131610459878946
0024027070,68533,PÁRAMO,SANTANDER,6.416631131,-73.17148232,1.0,0.2,5,1,0.07336956521739131,Muy ligera (< 5 mm),5.0
0024027070,68549,PINCHOTE,SANTANDER,6.513892626,-73.17570986,1.0,0.2,5,1,0.07336956521739131,Muy ligera (< 5 mm),5.0
0024027070,68855,VALLE DE SAN JOSÉ,SANTANDER,6.434578919,-73.10997171,1.0,0.2,5,1,0.07336956521739131,Muy ligera (< 5 mm),5.0
0024030140,15187,CHIVATÁ,BOYACÁ,5.556830465,-73.26061715,0.0,0.0,2,1,0.0761904761904762,Sin lluvia (0 mm),5.0
0024030140,15740,SIACHOQUE,BOYACÁ,5.498747701,-73.21681778,0.0,0.0,2,1,0.0761904761904762,Sin lluvia (0 mm),5.0
0024030140,15879,VIRACACHÁ,BOYACÁ,5.440558216,-73.26627456,0.0,0.0,2,1,0.0761904761904762,Sin lluvia (0 mm),5.0
0024030680,68207,CONCEPCIÓN,SANTANDER,6.76062337,-72.61815735,0.0,0.0,4,1,0.08823529411764706,Sin lluvia (0 mm),5.0
0024030950,68266,ENCISO,SANTANDER,6.65824115,-72.68027939,3.4000000000000004,1.6,2,0,0.04556650246305419,Muy ligera (< 5 mm),5.2033946655868455
0024030950,68432,MÁLAGA,SANTANDER,6.720222349,-72.73841091,3.4000000000000004,1.6,2,0,0.04556650246305419,Muy ligera (< 5 mm),5.2033946655868455
0024030950,68468,MOLAGAVITA,SANTANDER,6.643290559,-72.81916274,3.4000000000000004,1.6,2,0,0.04556650246305419,Muy ligera (< 5 mm),5.2033946655868455
0024030950,68669,SAN ANDRÉS,SANTANDER,6.796483063,-72.81613202,3.4000000000000004,1.6,2,0,0.04556650246305419,Muy ligera (< 5 mm),5.2033946655868455
0024030950,68684,SAN JOSÉ DE MIRANDA,SANTANDER,6.629400185,-72.73976423,3.4000000000000004,1.6,2,0,0.04556650246305419,Muy ligera (< 5 mm),5.2033946655868455
0024035250,15183,CHITA,BOYACÁ,6.091468485,-72.43903174,0.0,0.0,4,1,0.05945945945945946,Sin lluvia (0 mm),5.0
0024035250,15403,LA UVITA,BOYACÁ,6.265126191,-72.55551085,0.0,0.0,4,1,0.05945945945945946,Sin lluvia (0 mm),5.0
0024035250,85136,LA SALINA,CASANARE,6.178282373,-72.34693377,0.0,0.0,4,1,0.05945945945945946,Sin lluvia (0 mm),5.0
0024035340,15272,FIRAVITOBA,BOYACÁ,5.67367659,-73.01983352,0.0,0.0,4,0,0.05078125,Sin lluvia (0 mm),5.0
0024035360,15087,BELÉN,BOYACÁ,6.005059265,-72.89369887,0.0,0.0,4,1,0.128,Sin lluvia (0 mm),5.0
0024035360,15162,CERINZA,BOYACÁ,5.962013698,-72.96447288,0.0,0.0,4,1,0.128,Sin lluvia (0 mm),5.0
0024035370,15248,EL ESPINO,BOYACÁ,6.508240556,-72.48049625,1.2,0.7,4,1,0.19148936170212766,Muy ligera (< 5 mm),5.0
0024035380,15332,GÜICÁN DE LA SIERRA,BOYACÁ,6.566991765,-72.25599334,0.0,0.0,1,0,0.0,Sin lluvia (0 mm),5.0
0024035390,68162,CERRITO,SANTANDER,6.903923173,-72.64536324,7.3,1.8,4,1,0.18840579710144928,Ligera (5–15 mm),7.338656188927612
0024035390,68318,GUACA,SANTANDER,6.9434341,-72.82369873,7.3,1.8,4,1,0.18840579710144928,Ligera (5–15 mm),7.338656188927612
0024035430,15516,PAIPA,BOYACÁ,5.762027786,-73.13777442,13.2,8.9,4,1,0.10810810810810811,Ligera (5–15 mm),9.580309151606212
0024035502,15218,COVARACHÍA,BOYACÁ,6.519521476,-72.74020421,0.0,0.0,2,1,0.06837606837606838,Sin lluvia (0 mm),5.0
0024035502,68147,CAPITANEJO,SANTANDER,6.520200095,-72.67435203,0.0,0.0,2,1,0.06837606837606838,Sin lluvia (0 mm),5.0
0024035502,68686,SAN MIGUEL,SANTANDER,6.568121541,-72.64322497,0.0,0.0,2,1,0.06837606837606838,Sin lluvia (0 mm),5.0
0024035503,15114,BUSBANZÁ,BOYACÁ,5.843483731,-72.87574623,0.0,0.0,2,0,0.05187319884726225,Sin lluvia (0 mm),5.0
0024035503,15215,CORRALES,BOYACÁ,5.82454582,-72.84544845,0.0,0.0,2,0,0.05187319884726225,Sin lluvia (0 mm),5.0
0024035503,15276,FLORESTA,BOYACÁ,5.85899211,-72.92499827,0.0,0.0,2,0,0.05187319884726225,Sin lluvia (0 mm),5.0
0024035505,15368,JERICÓ,BOYACÁ,6.155633662,-72.58523093,1.6,1.3,2,1,0.05714285714285714,Muy ligera (< 5 mm),5.0
0024035506,15763,SOTAQUIRÁ,BOYACÁ,5.763010553,-73.24352232,8.5,4.9,2,1,0.06756756756756757,Ligera (5–15 mm),7.858863964696122
0024035507,15537,PAZ DE RÍO,BOYACÁ,6.030008561,-72.75988018,0.0,0.0,3,1,0.11235955056179775,Sin lluvia (0 mm),5.0
0024035507,15723,SATIVASUR,BOYACÁ,6.083405978,-72.72410815,0.0,0.0,3,1,0.11235955056179775,Sin lluvia (0 mm),5.0
0024035507,15757,SOCHA,BOYACÁ,5.960498836,-72.68239784,0.0,0.0,3,1,0.11235955056179775,Sin lluvia (0 mm),5.0
0024035509,15839,TUTAZÁ,BOYACÁ,6.078051903,-72.85707832,5.6000000000000005,5.4,2,1,0.06,Ligera (5–15 mm),6.513371760192438
0024035509,68502,ONZAGA,SANTANDER,6.335194548,-72.81205838,5.6000000000000005,5.4,2,1,0.06,Ligera (5–15 mm),6.513371760192438
0024035510,15092,BETÉITIVA,BOYACÁ,5.920858933,-72.84857876,0.0,0.0,2,1,0.062146892655367235,Sin lluvia (0 mm),5.0
0024035510,15790,TASCO,BOYACÁ,5.882294313,-72.72626817,0.0,0.0,2,1,0.062146892655367235,Sin lluvia (0 mm),5.0
0024037030,15500,OICATÁ,BOYACÁ,5.610787844,-73.27991905,0.0,0.0,4,1,0.07397260273972603,Sin lluvia (0 mm),5.0
0024037030,15837,TUTA,BOYACÁ,5.678126998,-73.17343053,0.0,0.0,4,1,0.07397260273972603,Sin lluvia (0 mm),5.0
0024037190,15238,DUITAMA,BOYACÁ,5.890602515,-73.06709484,0.0,0.0,4,1,0.08379888268156424,Sin lluvia (0 mm),5.0
0024037190,15693,SANTA ROSA DE VITERBO,BOYACÁ,5.892950301,-72.9917278,0.0,0.0,4,1,0.08379888268156424,Sin lluvia (0 mm),5.0
0024037290,15491,NOBSA,BOYACÁ,5.778759851,-72.93268324,0.0,0.0,3,1,0.07719298245614035,Sin lluvia (0 mm),5.0
0024037490,15097,BOAVITA,BOYACÁ,6.337515626,-72.62021239,0.0,0.0,2,1,0.057034220532319393,Sin lluvia (0 mm),5.0
0024037490,15810,TIPACOQUE,BOYACÁ,6.42035349,-72.69463583,0.0,0.0,2,1,0.057034220532319393,Sin lluvia (0 mm),5.0
0024037490,68425,MACARAVITA,SANTANDER,6.513745303,-72.58536492,0.0,0.0,2,1,0.057034220532319393,Sin lluvia (0 mm),5.0
0024050070,68092,BETULIA,SANTANDER,7.033255886,-73.37872388,70.6,24.2,2,1,0.05504587155963303,Muy fuerte (60–100 mm),20.37433160024225
0024055070,68689,SAN VICENTE DE CHUCURÍ,SANTANDER,6.894292346,-73.53900334,0.1,0.1,4,1,0.08148148148148149,Muy ligera (< 5 mm),5.0
0024055503,68079,BARICHARA,SANTANDER,6.647062543,-73.21518466,5.3,5.0,2,1,0.07102272727272728,Ligera (5–15 mm),6.353973453500432
0024055503,68121,CABRERA,SANTANDER,6.562543673,-73.25034892,5.3,5.0,2,1,0.07102272727272728,Ligera (5–15 mm),6.353973453500432
0024055503,68296,GALÁN,SANTANDER,6.671810994,-73.32467124,5.3,5.0,2,1,0.07102272727272728,Ligera (5–15 mm),6.353973453500432
0024055503,68344,HATO,SANTANDER,6.559878299,-73.36178841,5.3,5.0,2,1,0.07102272727272728,Ligera (5–15 mm),6.353973453500432
0024055503,68522,PALMAR,SANTANDER,6.525876964,-73.28247337,5.3,5.0,2,1,0.07102272727272728,Ligera (5–15 mm),6.353973453500432
0024055504,68895,ZAPATOCA,SANTANDER,6.813725566,-73.30975044,0.0,0.0,2,1,0.06285714285714286,Sin lluvia (0 mm),5.0
0024057070,13160,CANTAGALLO,BOLÍVAR,7.239229146,-74.10014043,0.0,0.0,2,0,0.02005730659025788,Sin lluvia (0 mm),5.0
0025017010,23079,BUENAVISTA,CÓRDOBA,8.191397953,-75.43382532,0.0,0.0,5,1,0.08943089430894309,Sin lluvia (0 mm),5.0
0025017020,23682,SAN JOSÉ DE URÉ,CÓRDOBA,7.753054395,-75.5672474,0.0,0.0,4,1,0.11607142857142858,Sin lluvia (0 mm),5.0
0025017030,23555,PLANETA RICA,CÓRDOBA,8.181108488,-75.68923803,0.0,0.0,3,1,0.06097560975609756,Sin lluvia (0 mm),5.0
0025020140,23189,CIÉNAGA DE ORO,CÓRDOBA,8.841811894,-75.60779829,0.0,0.0,3,1,0.06172839506172839,Sin lluvia (0 mm),5.0
0025020140,23660,SAHAGÚN,CÓRDOBA,8.799007016,-75.42925664,0.0,0.0,3,1,0.06172839506172839,Sin lluvia (0 mm),5.0
0025020140,70400,LA UNIÓN,SUCRE,8.811997799,-75.28322212,0.0,0.0,3,1,0.06172839506172839,Sin lluvia (0 mm),5.0
0025020430,23001,MONTERÍA,CÓRDOBA,8.584698016,-75.95055079,0.0,0.0,5,1,0.07517084282460136,Sin lluvia (0 mm),5.0
0025020430,23678,SAN CARLOS,CÓRDOBA,8.706464263,-75.69251825,0.0,0.0,5,1,0.07517084282460136,Sin lluvia (0 mm),5.0
0025020440,13212,CÓRDOBA,BOLÍVAR,9.540047515,-74.89445635,0.0,0.0,4,1,0.05970149253731343,Sin lluvia (0 mm),5.0
0025020440,70110,BUENAVISTA,SUCRE,9.314972282,-74.98014057,0.0,0.0,4,1,0.05970149253731343,Sin lluvia (0 mm),5.0
0025020440,70717,SAN PEDRO,SUCRE,9.396835638,-75.03741815,0.0,0.0,4,1,0.05970149253731343,Sin lluvia (0 mm),5.0
0025020470,23182,CHINÚ,CÓRDOBA,9.053287104,-75.37387363,5.0,2.8,5,1,0.09917355371900827,Ligera (5–15 mm),6.189531203042384
0025020470,70215,COROZAL,SUCRE,9.160624283,-75.23858178,5.0,2.8,5,1,0.09917355371900827,Ligera (5–15 mm),6.189531203042384
0025020470,70670,SAMPUÉS,SUCRE,9.165188649,-75.36027422,5.0,2.8,5,1,0.09917355371900827,Ligera (5–15 mm),6.189531203042384
0025020600,23570,PUEBLO NUEVO,CÓRDOBA,8.481339568,-75.40516154,0.0,0.0,5,1,0.07337526205450734,Sin lluvia (0 mm),5.0
0025025002,13650,SAN FERNANDO,BOLÍVAR,9.081483143,-74.37186647,0.0,0.0,4,1,0.07933194154488518,Sin lluvia (0 mm),5.0
0025025002,20032,ASTREA,CESAR,9.510727925,-73.94214641,0.0,0.0,4,1,0.07933194154488518,Sin lluvia (0 mm),5.0
0025025002,47318,GUAMAL,MAGDALENA,9.248004673,-74.13968085,0.0,0.0,4,1,0.07933194154488518,Sin lluvia (0 mm),5.0
0025025002,47460,NUEVA GRANADA,MAGDALENA,9.735998134,-74.32840222,0.0,0.0,4,1,0.07933194154488518,Sin lluvia (0 mm),5.0
0025025002,47545,PIJIÑO DEL CARMEN,MAGDALENA,9.530748654,-74.1447657,0.0,0.0,4,1,0.07933194154488518,Sin lluvia (0 mm),5.0
0025025002,47692,SAN SEBASTIÁN DE BUENAVISTA,MAGDALENA,9.380680272,-74.19797988,0.0,0.0,4,1,0.07933194154488518,Sin lluvia (0 mm),5.0
0025025002,47703,SAN ZENÓN,MAGDALENA,9.306869548,-74.35851644,0.0,0.0,4,1,0.07933194154488518,Sin lluvia (0 mm),5.0
0025025002,47707,SANTA ANA,MAGDALENA,9.503097215,-74.44419381,0.0,0.0,4,1,0.07933194154488518,Sin lluvia (0 mm),5.0
0025025100,47720,SANTA BÁRBARA DE PINTO,MAGDALENA,9.484388135,-74.66521178,5.7,1.1,4,1,0.07175925925925926,Ligera (5–15 mm),6.5654566746015695
0025025240,13006,ACHÍ,BOLÍVAR,8.622943262,-74.47805945,0.0,0.0,6,1,0.10526315789473684,Sin lluvia (0 mm),5.0
0025025240,70429,MAJAGUAL,SUCRE,8.546148134,-74.71037883,0.0,0.0,6,1,0.10526315789473684,Sin lluvia (0 mm),5.0
0025025270,70001,SINCELEJO,SUCRE,9.316673928,-75.43174967,5.6000000000000005,3.0,3,1,0.08853118712273642,Ligera (5–15 mm),6.513371760192438
0025025270,70523,PALMITO,SUCRE,9.334940293,-75.56199027,5.6000000000000005,3.0,3,1,0.08853118712273642,Ligera (5–15 mm),6.513371760192438
0025025270,70820,SANTIAGO DE TOLÚ,SUCRE,9.533810567,-75.53543469,5.6000000000000005,3.0,3,1,0.08853118712273642,Ligera (5–15 mm),6.513371760192438
0025025270,70823,SAN JOSÉ DE TOLUVIEJO,SUCRE,9.490297716,-75.44451115,5.6000000000000005,3.0,3,1,0.08853118712273642,Ligera (5–15 mm),6.513371760192438
0025025280,70204,COLOSÓ,SUCRE,9.494043427,-75.34528693,1.8,1.2,4,1,0.08275862068965517,Muy ligera (< 5 mm),5.0
0025025280,70418,LOS PALMITOS,SUCRE,9.422380117,-75.21302191,1.8,1.2,4,1,0.08275862068965517,Muy ligera (< 5 mm),5.0
0025025280,70473,MORROA,SUCRE,9.392496685,-75.32718744,1.8,1.2,4,1,0.08275862068965517,Muy ligera (< 5 mm),5.0
0025025280,70702,SAN JUAN DE BETULIA,SUCRE,9.292019071,-75.21363579,1.8,1.2,4,1,0.08275862068965517,Muy ligera (< 5 mm),5.0
0025025330,20517,PAILITAS,CESAR,8.938916143,-73.57247213,0.0,0.0,4,1,0.06338028169014084,Sin lluvia (0 mm),5.0
0025025330,20550,PELAYA,CESAR,8.764116734,-73.63295546,0.0,0.0,4,1,0.06338028169014084,Sin lluvia (0 mm),5.0
0025025330,20787,TAMALAMEQUE,CESAR,8.902075012,-73.7633962,0.0,0.0,4,1,0.06338028169014084,Sin lluvia (0 mm),5.0
0025025330,54206,CONVENCIÓN,NORTE DE SANTANDER,8.873159895,-73.20007769,0.0,0.0,4,1,0.06338028169014084,Sin lluvia (0 mm),5.0
0025025330,54245,EL CARMEN,NORTE DE SANTANDER,8.867990035,-73.34585922,0.0,0.0,4,1,0.06338028169014084,Sin lluvia (0 mm),5.0
0025025330,54800,TEORAMA,NORTE DE SANTANDER,8.760013794,-73.15714097,0.0,0.0,4,1,0.06338028169014084,Sin lluvia (0 mm),5.0
0025025340,70124,CAIMITO,SUCRE,8.792311599,-75.13191063,0.0,0.0,4,1,0.11475409836065574,Sin lluvia (0 mm),5.0
0025025340,70708,SAN MARCOS,SUCRE,8.589220102,-75.17249955,0.0,0.0,4,1,0.11475409836065574,Sin lluvia (0 mm),5.0
0025025360,13440,MARGARITA,BOLÍVAR,9.054601889,-74.22584706,286.0,14.2,4,1,0.10335195530726257,Extrema (≥ 100 mm),22.0
0025025360,20175,CHIMICHAGUA,CESAR,9.27797765,-73.84697903,286.0,14.2,4,1,0.10335195530726257,Extrema (≥ 100 mm),22.0
0025025360,47245,EL BANCO,MAGDALENA,9.114930635,-73.98105491,286.0,14.2,4,1,0.10335195530726257,Extrema (≥ 100 mm),22.0
0025025380,70233,EL ROBLE,SUCRE,9.036231591,-75.14575038,0.0,0.0,5,1,0.13052631578947368,Sin lluvia (0 mm),5.0
0025025380,70235,GALERAS,SUCRE,9.135169096,-74.98134706,0.0,0.0,5,1,0.13052631578947368,Sin lluvia (0 mm),5.0
0025025380,70742,SAN LUIS DE SINCÉ,SUCRE,9.256299047,-75.09397089,0.0,0.0,5,1,0.13052631578947368,Sin lluvia (0 mm),5.0
0025027020,13030,ALTOS DEL ROSARIO,BOLÍVAR,8.757468863,-74.19515811,7.2,5.2,5,1,0.070446735395189,Ligera (5–15 mm),7.29324626233724
0025027020,13074,BARRANCO DE LOBA,BOLÍVAR,8.837077654,-74.27966531,7.2,5.2,5,1,0.070446735395189,Ligera (5–15 mm),7.29324626233724
0025027020,13268,EL PEÑÓN,BOLÍVAR,8.864818786,-73.91230147,7.2,5.2,5,1,0.070446735395189,Ligera (5–15 mm),7.29324626233724
0025027020,13300,HATILLO DE LOBA,BOLÍVAR,8.981717133,-74.09071902,7.2,5.2,5,1,0.070446735395189,Ligera (5–15 mm),7.29324626233724
0025027020,13580,REGIDOR,BOLÍVAR,8.672628558,-73.91450679,7.2,5.2,5,1,0.070446735395189,Ligera (5–15 mm),7.29324626233724
0025027020,13667,SAN MARTÍN DE LOBA,BOLÍVAR,8.816088444,-74.00599967,7.2,5.2,5,1,0.070446735395189,Ligera (5–15 mm),7.29324626233724
0025027180,13430,MAGANGUÉ,BOLÍVAR,9.053135895,-74.70539318,3.5,0.4,5,1,0.07407407407407407,Muy ligera (< 5 mm),5.271714409212882
0025027180,13549,PINILLOS,BOLÍVAR,8.886315511,-74.40888476,3.5,0.4,5,1,0.07407407407407407,Muy ligera (< 5 mm),5.271714409212882
0025027180,70771,SUCRE,SUCRE,8.814333477,-74.74753131,3.5,0.4,5,1,0.07407407407407407,Muy ligera (< 5 mm),5.271714409212882
0025027200,13810,TIQUISIO,BOLÍVAR,8.492345176,-74.29676139,1.2,0.7,4,1,0.12244897959183673,Muy ligera (< 5 mm),5.0
0025027240,70678,SAN BENITO ABAD,SUCRE,8.835634919,-74.96469398,0.0,0.0,4,1,0.06,Sin lluvia (0 mm),5.0
0025027270,13458,MONTECRISTO,BOLÍVAR,8.01710024,-74.46342911,0.0,0.0,3,1,0.06857142857142857,Sin lluvia (0 mm),5.0
0025027270,13655,SAN JACINTO DEL CAUCA,BOLÍVAR,8.212463202,-74.75082,0.0,0.0,3,1,0.06857142857142857,Sin lluvia (0 mm),5.0
0025027450,13894,ZAMBRANO,BOLÍVAR,9.745147021,-74.88067037,0.8,0.2,5,1,0.05603448275862069,Muy ligera (< 5 mm),5.0
0025027450,47555,PLATO,MAGDALENA,9.76945611,-74.60181576,0.8,0.2,5,1,0.05603448275862069,Muy ligera (< 5 mm),5.0
0025027450,47798,TENERIFE,MAGDALENA,9.924701267,-74.73263001,0.8,0.2,5,1,0.05603448275862069,Muy ligera (< 5 mm),5.0
0025027910,70265,GUARANDA,SUCRE,8.337828523,-74.68734926,0.2,0.2,5,1,0.08732394366197183,Muy ligera (< 5 mm),5.0
0026015010,19001,POPAYÁN,CAUCA,2.471704362,-76.59194419,0.1,0.1,4,0,0.04995102840352596,Muy ligera (< 5 mm),5.0
0026015010,19807,TIMBÍO,CAUCA,2.369625312,-76.71051932,0.1,0.1,4,0,0.04995102840352596,Muy ligera (< 5 mm),5.0
0026015040,19743,SILVIA,CAUCA,2.651291894,-76.35057356,0.0,0.0,4,1,0.0675146771037182,Sin lluvia (0 mm),5.0
0026015040,19824,TOTORÓ,CAUCA,2.475213085,-76.39675937,0.0,0.0,4,1,0.0675146771037182,Sin lluvia (0 mm),5.0
0026015050,19585,PURACÉ,CAUCA,2.262153618,-76.44826938,0.0,0.0,4,1,0.07936507936507936,Sin lluvia (0 mm),5.0
0026015050,19760,SOTARÁ PAISPAMBA,CAUCA,2.231820541,-76.61146633,0.0,0.0,4,1,0.07936507936507936,Sin lluvia (0 mm),5.0
0026027200,19130,CAJIBÍO,CAUCA,2.643209848,-76.70138914,0.0,0.0,4,1,0.06072874493927125,Sin lluvia (0 mm),5.0
0026027200,19137,CALDONO,CAUCA,2.803845691,-76.42719377,0.0,0.0,4,1,0.06072874493927125,Sin lluvia (0 mm),5.0
0026027200,19473,MORALES,CAUCA,2.773663981,-76.74605152,0.0,0.0,4,1,0.06072874493927125,Sin lluvia (0 mm),5.0
0026027200,19548,PIENDAMÓ - TUNÍA,CAUCA,2.702420026,-76.53770455,0.0,0.0,4,1,0.06072874493927125,Sin lluvia (0 mm),5.0
0026055110,19110,BUENOS AIRES,CAUCA,2.988923885,-76.62158951,1.2,0.8,4,1,0.1875,Muy ligera (< 5 mm),5.0
0026055110,19418,LÓPEZ DE MICAY,CAUCA,2.95819877,-77.24212158,1.2,0.8,4,1,0.1875,Muy ligera (< 5 mm),5.0
0026055110,19698,SANTANDER DE QUILICHAO,CAUCA,2.984467338,-76.49873145,1.2,0.8,4,1,0.1875,Muy ligera (< 5 mm),5.0
0026055110,19780,SUÁREZ,CAUCA,2.936865997,-76.7458243,1.2,0.8,4,1,0.1875,Muy ligera (< 5 mm),5.0
0026055110,19845,VILLA RICA,CAUCA,3.180627317,-76.46445558,1.2,0.8,4,1,0.1875,Muy ligera (< 5 mm),5.0
0026055110,76364,JAMUNDÍ,VALLE DEL CAUCA,3.213892389,-76.62760418,1.2,0.8,4,1,0.1875,Muy ligera (< 5 mm),5.0
0026055120,19573,PUERTO TEJADA,CAUCA,3.266724205,-76.41846353,0.0,0.0,4,1,0.12721893491124261,Sin lluvia (0 mm),5.0
0026075120,76275,FLORIDA,VALLE DEL CAUCA,3.304104295,-76.16477307,0.8,0.1,4,1,0.07627118644067797,Muy ligera (< 5 mm),5.0
0026075120,76563,PRADERA,VALLE DEL CAUCA,3.42063665,-76.17841841,0.8,0.1,4,1,0.07627118644067797,Muy ligera (< 5 mm),5.0
0026075150,76248,EL CERRITO,VALLE DEL CAUCA,3.656072873,-76.30841784,0.0,0.0,5,1,0.10344827586206896,Sin lluvia (0 mm),5.0
0026075150,76520,PALMIRA,VALLE DEL CAUCA,3.558392876,-76.22779972,0.0,0.0,5,1,0.10344827586206896,Sin lluvia (0 mm),5.0
0026085160,76001,CALI,VALLE DEL CAUCA,3.399043723,-76.57649259,0.0,0.0,4,0,0.03861003861003861,Sin lluvia (0 mm),5.0
0026085170,76130,CANDELARIA,VALLE DEL CAUCA,3.382091564,-76.38317663,0.0,0.0,5,1,0.06369426751592357,Sin lluvia (0 mm),5.0
0026105240,76111,GUADALAJARA DE BUGA,VALLE DEL CAUCA,3.819854318,-75.98312419,0.0,0.0,4,0,0.05263157894736842,Sin lluvia (0 mm),5.0
0026105240,76306,GINEBRA,VALLE DEL CAUCA,3.74410441,-76.19082004,0.0,0.0,4,0,0.05263157894736842,Sin lluvia (0 mm),5.0
0026105240,76670,SAN PEDRO,VALLE DEL CAUCA,3.98143244,-76.20836168,0.0,0.0,4,0,0.05263157894736842,Sin lluvia (0 mm),5.0
0026105240,76834,TULUÁ,VALLE DEL CAUCA,4.02840797,-76.03250379,0.0,0.0,4,0,0.05263157894736842,Sin lluvia (0 mm),5.0
0026105250,76147,CARTAGO,VALLE DEL CAUCA,4.70684716,-75.91790846,12.1,4.8,4,1,0.09322033898305085,Ligera (5–15 mm),9.212439979135404
0026105250,76497,OBANDO,VALLE DEL CAUCA,4.597588666,-75.9491997,12.1,4.8,4,1,0.09322033898305085,Ligera (5–15 mm),9.212439979135404
0026115090,27660,SAN JOSÉ DEL PALMAR,CHOCÓ,4.958741345,-76.28002361,0.0,0.0,4,0,0.05405405405405406,Sin lluvia (0 mm),5.0
0026115090,76041,ANSERMANUEVO,VALLE DEL CAUCA,4.795927292,-76.02963049,0.0,0.0,4,0,0.05405405405405406,Sin lluvia (0 mm),5.0
0026115090,76054,ARGELIA,VALLE DEL CAUCA,4.704287864,-76.14164999,0.0,0.0,4,0,0.05405405405405406,Sin lluvia (0 mm),5.0
0026115090,76243,EL ÁGUILA,VALLE DEL CAUCA,4.917562873,-76.06601001,0.0,0.0,4,0,0.05405405405405406,Sin lluvia (0 mm),5.0
0026115090,76246,EL CAIRO,VALLE DEL CAUCA,4.756063701,-76.21502826,0.0,0.0,4,0,0.05405405405405406,Sin lluvia (0 mm),5.0
0026115090,76823,TORO,VALLE DEL CAUCA,4.638421279,-76.08106176,0.0,0.0,4,0,0.05405405405405406,Sin lluvia (0 mm),5.0
0026115090,76863,VERSALLES,VALLE DEL CAUCA,4.644242641,-76.25924483,0.0,0.0,4,0,0.05405405405405406,Sin lluvia (0 mm),5.0
0026125061,63001,ARMENIA,QUINDÍO,4.499501128,-75.72489985,0.774,0.099,4,1,0.10677618069815195,Muy ligera (< 5 mm),5.0
0026125061,63470,MONTENEGRO,QUINDÍO,4.521890945,-75.81806594,0.774,0.099,4,1,0.10677618069815195,Muy ligera (< 5 mm),5.0
0026125300,63130,CALARCÁ,QUINDÍO,4.467879428,-75.65674719,0.0,0.0,4,0,0.050666666666666665,Sin lluvia (0 mm),5.0
0026125710,66001,PEREIRA,RISARALDA,4.803662773,-75.79579093,66.6,11.8,4,1,0.06593406593406594,Muy fuerte (60–100 mm),19.846533330151292
0026125710,66170,DOSQUEBRADAS,RISARALDA,4.842021144,-75.66993655,66.6,11.8,4,1,0.06593406593406594,Muy fuerte (60–100 mm),19.846533330151292
0026125710,76020,ALCALÁ,VALLE DEL CAUCA,4.6788971,-75.78297932,66.6,11.8,4,1,0.06593406593406594,Muy fuerte (60–100 mm),19.846533330151292
0026125710,76845,ULLOA,VALLE DEL CAUCA,4.707718947,-75.77835903,66.6,11.8,4,1,0.06593406593406594,Muy fuerte (60–100 mm),19.846533330151292
0026127010,63401,LA TEBAIDA,QUINDÍO,4.426884849,-75.81927335,5.0,2.6,4,1,0.13953488372093023,Ligera (5–15 mm),6.189531203042384
0026127010,76122,CAICEDONIA,VALLE DEL CAUCA,4.308997973,-75.83672567,5.0,2.6,4,1,0.13953488372093023,Ligera (5–15 mm),6.189531203042384
0026127010,76403,LA VICTORIA,VALLE DEL CAUCA,4.483511142,-75.96677303,5.0,2.6,4,1,0.13953488372093023,Ligera (5–15 mm),6.189531203042384
0026137220,63272,FILANDIA,QUINDÍO,4.669325347,-75.67146941,0.0,0.0,4,1,0.21052631578947367,Sin lluvia (0 mm),5.0
0026145090,66045,APÍA,RISARALDA,5.139635357,-75.95353871,0.1,0.1,4,1,0.09497206703910614,Muy ligera (< 5 mm),5.0
0026145090,66088,BELÉN DE UMBRÍA,RISARALDA,5.200398696,-75.86793893,0.1,0.1,4,1,0.09497206703910614,Muy ligera (< 5 mm),5.0
0026147140,17088,BELALCÁZAR,CALDAS,4.99467728,-75.81225989,0.4000000000000001,0.2,3,0,0.04526748971193416,Muy ligera (< 5 mm),5.0
0026147140,17616,RISARALDA,CALDAS,5.097563816,-75.73335166,0.4000000000000001,0.2,3,0,0.04526748971193416,Muy ligera (< 5 mm),5.0
0026147140,17665,SAN JOSÉ,CALDAS,5.083424513,-75.8101789,0.4000000000000001,0.2,3,0,0.04526748971193416,Muy ligera (< 5 mm),5.0
0026147140,17877,VITERBO,CALDAS,5.047822054,-75.879297,0.4000000000000001,0.2,3,0,0.04526748971193416,Muy ligera (< 5 mm),5.0
0026147140,66383,LA CELIA,RISARALDA,4.988127679,-76.00822678,0.4000000000000001,0.2,3,0,0.04526748971193416,Muy ligera (< 5 mm),5.0
0026147140,66440,MARSELLA,RISARALDA,4.942936185,-75.7532139,0.4000000000000001,0.2,3,0,0.04526748971193416,Muy ligera (< 5 mm),5.0
0026155110,17001,MANIZALES,CALDAS,5.08343301,-75.50727881,0.0,0.0,3,1,0.07964601769911504,Sin lluvia (0 mm),5.0
0026155110,17486,NEIRA,CALDAS,5.183358589,-75.50692977,0.0,0.0,3,1,0.07964601769911504,Sin lluvia (0 mm),5.0
0026155110,17524,PALESTINA,CALDAS,5.050342543,-75.66176266,0.0,0.0,3,1,0.07964601769911504,Sin lluvia (0 mm),5.0
0026155270,17873,VILLAMARÍA,CALDAS,4.940211591,-75.43544014,0.6000000000000001,0.2,4,1,0.18181818181818182,Muy ligera (< 5 mm),5.0
0026177030,66075,BALBOA,RISARALDA,4.918349676,-75.94275386,185.1,22.9,4,1,0.09205020920502092,Extrema (≥ 100 mm),22.0
0026177030,66400,LA VIRGINIA,RISARALDA,4.904704187,-75.85208162,185.1,22.9,4,1,0.09205020920502092,Extrema (≥ 100 mm),22.0
0026185020,5148,EL CARMEN DE VIBORAL,ANTIOQUIA,5.978078841,-75.2635361,5.0,1.2,3,1,0.06329113924050633,Ligera (5–15 mm),6.189531203042384
0026185020,5400,LA UNIÓN,ANTIOQUIA,5.940434685,-75.35429023,5.0,1.2,3,1,0.06329113924050633,Ligera (5–15 mm),6.189531203042384
0026185050,5002,ABEJORRAL,ANTIOQUIA,5.803728154,-75.43847353,0.0,0.0,4,1,0.0670391061452514,Sin lluvia (0 mm),5.0
0026185050,5467,MONTEBELLO,ANTIOQUIA,5.916853903,-75.51972693,0.0,0.0,4,1,0.0670391061452514,Sin lluvia (0 mm),5.0
0026185050,5679,SANTA BÁRBARA,ANTIOQUIA,5.878984956,-75.58330371,0.0,0.0,4,1,0.0670391061452514,Sin lluvia (0 mm),5.0
0026187040,5145,CARAMANTA,ANTIOQUIA,5.555275296,-75.63082096,0.0,0.0,4,0,0.04935622317596566,Sin lluvia (0 mm),5.0
0026187040,5390,LA PINTADA,ANTIOQUIA,5.746583958,-75.60220206,0.0,0.0,4,0,0.04935622317596566,Sin lluvia (0 mm),5.0
0026187040,5789,TÁMESIS,ANTIOQUIA,5.673758571,-75.70979974,0.0,0.0,4,0,0.04935622317596566,Sin lluvia (0 mm),5.0
0026187040,5856,VALPARAÍSO,ANTIOQUIA,5.651937802,-75.63083412,0.0,0.0,4,0,0.04935622317596566,Sin lluvia (0 mm),5.0
0026187040,17013,AGUADAS,CALDAS,5.616204006,-75.4554471,0.0,0.0,4,0,0.04935622317596566,Sin lluvia (0 mm),5.0
0026187040,17442,MARMATO,CALDAS,5.492632029,-75.60209955,0.0,0.0,4,0,0.04935622317596566,Sin lluvia (0 mm),5.0
0026187040,17513,PÁCORA,CALDAS,5.500035035,-75.48245057,0.0,0.0,4,0,0.04935622317596566,Sin lluvia (0 mm),5.0
0026207080,5861,VENECIA,ANTIOQUIA,5.956576355,-75.77722423,13.0,3.0,4,1,0.1326530612244898,Ligera (5–15 mm),9.514714542651761
0026217010,5042,SANTA FÉ DE ANTIOQUIA,ANTIOQUIA,6.535711576,-75.90426658,0.0,0.0,2,1,0.06538461538461539,Sin lluvia (0 mm),5.0
0026217010,5125,CAICEDO,ANTIOQUIA,6.423463639,-75.99351498,0.0,0.0,2,1,0.06538461538461539,Sin lluvia (0 mm),5.0
0026225060,5656,SAN JERÓNIMO,ANTIOQUIA,6.438300409,-75.70310727,0.0,0.0,4,1,0.07861635220125786,Sin lluvia (0 mm),5.0
0026225060,5761,SOPETRÁN,ANTIOQUIA,6.520164552,-75.74580903,0.0,0.0,4,1,0.07861635220125786,Sin lluvia (0 mm),5.0
0026237040,5790,TARAZÁ,ANTIOQUIA,7.488875998,-75.40189438,0.0,0.0,5,1,0.06553911205073996,Sin lluvia (0 mm),5.0
0026237040,5854,VALDIVIA,ANTIOQUIA,7.265404213,-75.40094502,0.0,0.0,5,1,0.06553911205073996,Sin lluvia (0 mm),5.0
0026237100,5411,LIBORINA,ANTIOQUIA,6.723990935,-75.78300046,0.0,0.0,3,1,0.06353591160220995,Sin lluvia (0 mm),5.0
0026237100,5501,OLAYA,ANTIOQUIA,6.611418083,-75.77567097,0.0,0.0,3,1,0.06353591160220995,Sin lluvia (0 mm),5.0
0026237100,5628,SABANALARGA,ANTIOQUIA,6.901000506,-75.79222754,0.0,0.0,3,1,0.06353591160220995,Sin lluvia (0 mm),5.0
0026247010,5120,CÁCERES,ANTIOQUIA,7.665155105,-75.22369744,0.0,0.0,4,1,0.06477732793522267,Sin lluvia (0 mm),5.0
0026247020,23350,LA APARTADA,CÓRDOBA,8.052218422,-75.28816022,0.0,0.0,4,1,0.07086614173228346,Sin lluvia (0 mm),5.0
0026255030,5107,BRICEÑO,ANTIOQUIA,7.111788462,-75.56223474,0.2,0.1,4,1,0.15083798882681565,Muy ligera (< 5 mm),5.0
0027010810,5266,ENVIGADO,ANTIOQUIA,6.154394922,-75.54686779,2.9,0.7,2,0,0.05157593123209169,Muy ligera (< 5 mm),5.0
0027011100,5736,SEGOVIA,ANTIOQUIA,7.26692339,-74.62163926,2.6,1.4,2,1,0.05730659025787966,Muy ligera (< 5 mm),5.0
0027015190,5190,CISNEROS,ANTIOQUIA,6.550065431,-75.08254116,12.0,0.4,2,1,0.054441260744985676,Ligera (5–15 mm),9.178100638240178
0027015190,5310,GÓMEZ PLATA,ANTIOQUIA,6.709562839,-75.19270291,12.0,0.4,2,1,0.054441260744985676,Ligera (5–15 mm),9.178100638240178
0027015190,5690,SANTO DOMINGO,ANTIOQUIA,6.481044132,-75.14260097,12.0,0.4,2,1,0.054441260744985676,Ligera (5–15 mm),9.178100638240178
0027015190,5890,YOLOMBÓ,ANTIOQUIA,6.64442786,-75.02990266,12.0,0.4,2,1,0.054441260744985676,Ligera (5–15 mm),9.178100638240178
0027015260,5030,AMAGÁ,ANTIOQUIA,6.032921994,-75.7080031,13.6,7.8,2,0,0.05142857142857143,Ligera (5–15 mm),9.709877781958319
0027015260,5129,CALDAS,ANTIOQUIA,6.054446841,-75.62642674,13.6,7.8,2,0,0.05142857142857143,Ligera (5–15 mm),9.709877781958319
0027015260,5380,LA ESTRELLA,ANTIOQUIA,6.137595883,-75.64895499,13.6,7.8,2,0,0.05142857142857143,Ligera (5–15 mm),9.709877781958319
0027015280,5086,BELMIRA,ANTIOQUIA,6.665853953,-75.68621659,0.0,0.0,4,1,0.06570155902004454,Sin lluvia (0 mm),5.0
0027015280,5264,ENTRERRÍOS,ANTIOQUIA,6.594656004,-75.55913083,0.0,0.0,4,1,0.06570155902004454,Sin lluvia (0 mm),5.0
0027015310,5088,BELLO,ANTIOQUIA,6.358841086,-75.58973588,0.0,0.0,4,1,0.07283763277693475,Sin lluvia (0 mm),5.0
0027015310,5212,COPACABANA,ANTIOQUIA,6.351882893,-75.50075633,0.0,0.0,4,1,0.07283763277693475,Sin lluvia (0 mm),5.0
0027015310,5237,DONMATÍAS,ANTIOQUIA,6.492403905,-75.42227687,0.0,0.0,4,1,0.07283763277693475,Sin lluvia (0 mm),5.0
0027015310,5308,GIRARDOTA,ANTIOQUIA,6.379745895,-75.44795744,0.0,0.0,4,1,0.07283763277693475,Sin lluvia (0 mm),5.0
0027015310,5664,SAN PEDRO DE LOS MILAGROS,ANTIOQUIA,6.458666308,-75.5624839,0.0,0.0,4,1,0.07283763277693475,Sin lluvia (0 mm),5.0
0027015320,5647,SAN ANDRÉS DE CUERQUÍA,ANTIOQUIA,6.918427233,-75.6657758,2.3,1.4,4,1,0.11345646437994723,Muy ligera (< 5 mm),5.0
0027015320,5658,SAN JOSÉ DE LA MONTAÑA,ANTIOQUIA,6.823258913,-75.67770826,2.3,1.4,4,1,0.11345646437994723,Muy ligera (< 5 mm),5.0
0027015320,5686,SANTA ROSA DE OSOS,ANTIOQUIA,6.675827825,-75.43814333,2.3,1.4,4,1,0.11345646437994723,Muy ligera (< 5 mm),5.0
0027015330,5001,MEDELLÍN,ANTIOQUIA,6.257590259,-75.61103107,53.145999999999994,10.354,6,1,0.12779552715654952,Fuerte (30–60 mm),17.930112609994914
0027015330,5360,ITAGÜÍ,ANTIOQUIA,6.179279438,-75.6142037,53.145999999999994,10.354,6,1,0.12779552715654952,Fuerte (30–60 mm),17.930112609994914
0027025030,5040,ANORÍ,ANTIOQUIA,7.193110778,-75.10848954,0.2,0.2,2,1,0.06395348837209303,Muy ligera (< 5 mm),5.0
0027027060,5038,ANGOSTURA,ANTIOQUIA,6.861498764,-75.358316,0.0,0.0,4,1,0.09497206703910614,Sin lluvia (0 mm),5.0
0027027060,5134,CAMPAMENTO,ANTIOQUIA,7.036017478,-75.28766178,0.0,0.0,4,1,0.09497206703910614,Sin lluvia (0 mm),5.0
0027027060,5150,CAROLINA,ANTIOQUIA,6.754821442,-75.30590654,0.0,0.0,4,1,0.09497206703910614,Sin lluvia (0 mm),5.0
0027027060,5887,YARUMAL,ANTIOQUIA,6.9881309,-75.45439957,0.0,0.0,4,1,0.09497206703910614,Sin lluvia (0 mm),5.0
0027035050,5250,EL BAGRE,ANTIOQUIA,7.704633351,-74.66427726,7.4,0.6,2,0,0.05357142857142857,Ligera (5–15 mm),7.383725258006045
0027037010,5495,NECHÍ,ANTIOQUIA,7.983477394,-74.65844186,0.0,0.0,4,1,0.08276797829036635,Sin lluvia (0 mm),5.0
0027037020,5895,ZARAGOZA,ANTIOQUIA,7.474004006,-74.85848326,0.20000000000000004,0.2,3,1,0.08333333333333333,Muy ligera (< 5 mm),5.0
0028015070,20443,MANAURE BALCÓN DEL CESAR,CESAR,10.38027852,-73.00706275,0.0,0.0,3,1,0.06217616580310881,Sin lluvia (0 mm),5.0
0028015070,44110,EL MOLINO,LA GUAJIRA,10.63669646,-72.8858431,0.0,0.0,3,1,0.06217616580310881,Sin lluvia (0 mm),5.0
0028015070,44420,LA JAGUA DEL PILAR,LA GUAJIRA,10.4580941,-73.07209193,0.0,0.0,3,1,0.06217616580310881,Sin lluvia (0 mm),5.0
0028015070,44855,URUMITA,LA GUAJIRA,10.4947021,-72.98623991,0.0,0.0,3,1,0.06217616580310881,Sin lluvia (0 mm),5.0
0028015070,44874,VILLANUEVA,LA GUAJIRA,10.58364755,-72.97520286,0.0,0.0,3,1,0.06217616580310881,Sin lluvia (0 mm),5.0
0028025090,20013,AGUSTÍN CODAZZI,CESAR,9.949215908,-73.22358244,47.6,6.8,3,0,0.04151624548736462,Fuerte (30–60 mm),17.062567538281897
0028025090,20045,BECERRIL,CESAR,9.727732939,-73.25250522,47.6,6.8,3,0,0.04151624548736462,Fuerte (30–60 mm),17.062567538281897
0028025090,20400,LA JAGUA DE IBIRICO,CESAR,9.52099808,-73.32249338,47.6,6.8,3,0,0.04151624548736462,Fuerte (30–60 mm),17.062567538281897
0028025120,20621,LA PAZ,CESAR,10.24440562,-73.07824569,0.1,0.1,4,0,0.050397877984084884,Muy ligera (< 5 mm),5.0
0028025502,20001,VALLEDUPAR,CESAR,10.21890277,-73.45784764,0.0,0.0,4,1,0.056439942112879886,Sin lluvia (0 mm),5.0
0028025502,20750,SAN DIEGO,CESAR,10.16952712,-73.2879827,0.0,0.0,4,1,0.056439942112879886,Sin lluvia (0 mm),5.0
0029015000,13140,CALAMAR,BOLÍVAR,10.15517098,-74.99995949,0.0,0.0,5,1,0.12,Sin lluvia (0 mm),5.0
0029015000,13248,EL GUAMO,BOLÍVAR,10.03483672,-74.92811072,0.0,0.0,5,1,0.12,Sin lluvia (0 mm),5.0
0029015000,13657,SAN JUAN NEPOMUCENO,BOLÍVAR,9.967957823,-75.06571959,0.0,0.0,5,1,0.12,Sin lluvia (0 mm),5.0
0029015040,13244,EL CARMEN DE BOLÍVAR,BOLÍVAR,9.699819876,-75.15793573,0.0,0.0,5,1,0.11023622047244094,Sin lluvia (0 mm),5.0
0029015040,13654,SAN JACINTO,BOLÍVAR,9.835362011,-75.10609201,0.0,0.0,5,1,0.11023622047244094,Sin lluvia (0 mm),5.0
0029035000,13052,ARJONA,BOLÍVAR,10.16422123,-75.37121788,0.8,0.3,4,1,0.07364341085271318,Muy ligera (< 5 mm),5.0
0029035000,13433,MAHATES,BOLÍVAR,10.17821391,-75.17978161,0.8,0.3,4,1,0.07364341085271318,Muy ligera (< 5 mm),5.0
0029035000,13442,MARÍA LA BAJA,BOLÍVAR,9.976017168,-75.34380265,0.8,0.3,4,1,0.07364341085271318,Muy ligera (< 5 mm),5.0
0029035080,8137,CAMPO DE LA CRUZ,ATLÁNTICO,10.38405079,-74.88466039,0.0,0.0,4,1,0.08823529411764706,Sin lluvia (0 mm),5.0
0029035080,8141,CANDELARIA,ATLÁNTICO,10.48902047,-74.87756627,0.0,0.0,4,1,0.08823529411764706,Sin lluvia (0 mm),5.0
0029035080,8436,MANATÍ,ATLÁNTICO,10.45414555,-74.98477367,0.0,0.0,4,1,0.08823529411764706,Sin lluvia (0 mm),5.0
0029035080,8560,PONEDERA,ATLÁNTICO,10.59465102,-74.79847316,0.0,0.0,4,1,0.08823529411764706,Sin lluvia (0 mm),5.0
0029035080,8638,SABANALARGA,ATLÁNTICO,10.62250777,-74.95510542,0.0,0.0,4,1,0.08823529411764706,Sin lluvia (0 mm),5.0
0029035080,8675,SANTA LUCÍA,ATLÁNTICO,10.35364192,-74.96541179,0.0,0.0,4,1,0.08823529411764706,Sin lluvia (0 mm),5.0
0029035200,8421,LURUACO,ATLÁNTICO,10.63503116,-75.15402741,0.0,0.0,4,0,0.048109965635738834,Sin lluvia (0 mm),5.0
0029035200,8606,REPELÓN,ATLÁNTICO,10.50757051,-75.12188053,0.0,0.0,4,0,0.048109965635738834,Sin lluvia (0 mm),5.0
0029035200,13222,CLEMENCIA,BOLÍVAR,10.55663696,-75.31446653,0.0,0.0,4,0,0.048109965635738834,Sin lluvia (0 mm),5.0
0029035200,13620,SAN CRISTÓBAL,BOLÍVAR,10.36972087,-75.07333835,0.0,0.0,4,0,0.048109965635738834,Sin lluvia (0 mm),5.0
0029035200,13647,SAN ESTANISLAO,BOLÍVAR,10.36468192,-75.20523487,0.0,0.0,4,0,0.048109965635738834,Sin lluvia (0 mm),5.0
0029035200,13673,SANTA CATALINA,BOLÍVAR,10.64981278,-75.26548463,0.0,0.0,4,0,0.048109965635738834,Sin lluvia (0 mm),5.0
0029035200,13760,SOPLAVIENTO,BOLÍVAR,10.33209031,-75.11699226,0.0,0.0,4,0,0.048109965635738834,Sin lluvia (0 mm),5.0
0029035200,13873,VILLANUEVA,BOLÍVAR,10.4449132,-75.26736275,0.0,0.0,4,0,0.048109965635738834,Sin lluvia (0 mm),5.0
0029045110,8078,BARANOA,ATLÁNTICO,10.79329302,-74.92219491,301.0,28.2,4,1,0.06728971962616823,Extrema (≥ 100 mm),22.0
0029045110,8372,JUAN DE ACOSTA,ATLÁNTICO,10.82306503,-75.07841904,301.0,28.2,4,1,0.06728971962616823,Extrema (≥ 100 mm),22.0
0029045110,8549,PIOJÓ,ATLÁNTICO,10.74078959,-75.14366034,301.0,28.2,4,1,0.06728971962616823,Extrema (≥ 100 mm),22.0
0029045110,8832,TUBARÁ,ATLÁNTICO,10.90721938,-74.98423293,301.0,28.2,4,1,0.06728971962616823,Extrema (≥ 100 mm),22.0
0029045110,8849,USIACURÍ,ATLÁNTICO,10.74052266,-74.98267413,301.0,28.2,4,1,0.06728971962616823,Extrema (≥ 100 mm),22.0
0029045190,8296,GALAPA,ATLÁNTICO,10.89771991,-74.88708788,0.0,0.0,4,1,0.09482001755926252,Sin lluvia (0 mm),5.0
0029045190,8758,SOLEDAD,ATLÁNTICO,10.9069066,-74.7784249,0.0,0.0,4,1,0.09482001755926252,Sin lluvia (0 mm),5.0
0029047070,8770,SUAN,ATLÁNTICO,10.31085035,-74.90713308,0.0,0.0,4,1,0.05563093622795115,Sin lluvia (0 mm),5.0
0029047070,13062,ARROYOHONDO,BOLÍVAR,10.24171805,-75.02690422,0.0,0.0,4,1,0.05563093622795115,Sin lluvia (0 mm),5.0
0029047070,47161,CERRO DE SAN ANTONIO,MAGDALENA,10.3132933,-74.80834413,0.0,0.0,4,1,0.05563093622795115,Sin lluvia (0 mm),5.0
0029047070,47205,CONCORDIA,MAGDALENA,10.23284801,-74.77810175,0.0,0.0,4,1,0.05563093622795115,Sin lluvia (0 mm),5.0
0029047070,47541,PEDRAZA,MAGDALENA,10.15429546,-74.83178091,0.0,0.0,4,1,0.05563093622795115,Sin lluvia (0 mm),5.0
0029047070,47960,ZAPAYÁN,MAGDALENA,10.11779893,-74.69115456,0.0,0.0,4,1,0.05563093622795115,Sin lluvia (0 mm),5.0
0029065000,47170,CHIVOLO,MAGDALENA,10.09951961,-74.52606667,0.0,0.0,4,1,0.1151685393258427,Sin lluvia (0 mm),5.0
0029065000,47258,EL PIÑÓN,MAGDALENA,10.34310988,-74.67817756,0.0,0.0,4,1,0.1151685393258427,Sin lluvia (0 mm),5.0
0029065000,47551,PIVIJAY,MAGDALENA,10.43303399,-74.41251197,0.0,0.0,4,1,0.1151685393258427,Sin lluvia (0 mm),5.0
0029065000,47605,REMOLINO,MAGDALENA,10.64860351,-74.58106823,0.0,0.0,4,1,0.1151685393258427,Sin lluvia (0 mm),5.0
0029065000,47675,SALAMINA,MAGDALENA,10.51538178,-74.72296972,0.0,0.0,4,1,0.1151685393258427,Sin lluvia (0 mm),5.0
0029065120,20570,PUEBLO BELLO,CESAR,10.41736874,-73.61450632,7.200000000000001,5.2,4,1,0.2857142857142857,Ligera (5–15 mm),7.293246262337242
0029065120,47053,ARACATACA,MAGDALENA,10.64490877,-73.87972257,7.200000000000001,5.2,4,1,0.2857142857142857,Ligera (5–15 mm),7.293246262337242
0029065120,47288,FUNDACIÓN,MAGDALENA,10.45937818,-73.88406518,7.200000000000001,5.2,4,1,0.2857142857142857,Ligera (5–15 mm),7.293246262337242
0029065130,47570,PUEBLOVIEJO,MAGDALENA,10.84758901,-74.36057942,0.0,0.0,4,1,0.08849557522123894,Sin lluvia (0 mm),5.0
0029065130,47980,ZONA BANANERA,MAGDALENA,10.79634658,-74.17798317,0.0,0.0,4,1,0.08849557522123894,Sin lluvia (0 mm),5.0
0029067060,47030,ALGARROBO,MAGDALENA,10.25356475,-74.10323027,0.0,0.0,5,1,0.05956112852664577,Sin lluvia (0 mm),5.0
0029067060,47660,SABANAS DE SAN ÁNGEL,MAGDALENA,10.10533028,-74.2644392,0.0,0.0,5,1,0.05956112852664577,Sin lluvia (0 mm),5.0
0029067150,47268,EL RETÉN,MAGDALENA,10.65961696,-74.3251597,0.0,0.0,5,1,0.06130268199233716,Sin lluvia (0 mm),5.0
0031095030,94001,INÍRIDA,GUAINÍA,3.516363079,-68.00834728,0.20000000000000004,0.1,6,1,0.16201117318435754,Muy ligera (< 5 mm),5.0
0031095030,94883,SAN FELIPE,GUAINÍA,2.312179782,-67.52060569,0.20000000000000004,0.1,6,1,0.16201117318435754,Muy ligera (< 5 mm),5.0
0031095030,94884,PUERTO COLOMBIA,GUAINÍA,2.582829542,-68.25799033,0.20000000000000004,0.1,6,1,0.16201117318435754,Muy ligera (< 5 mm),5.0
0031095030,94885,LA GUADALUPE,GUAINÍA,1.404540273,-67.001518,0.20000000000000004,0.1,6,1,0.16201117318435754,Muy ligera (< 5 mm),5.0
0031095030,94886,CACAHUAL,GUAINÍA,3.38616245,-67.58507998,0.20000000000000004,0.1,6,1,0.16201117318435754,Muy ligera (< 5 mm),5.0
0032105080,50325,MAPIRIPÁN,META,3.117523361,-71.93805692,0.0,0.0,3,1,0.06976744186046512,Sin lluvia (0 mm),5.0
0032105080,50450,PUERTO CONCORDIA,META,2.752260112,-72.7210941,0.0,0.0,3,1,0.06976744186046512,Sin lluvia (0 mm),5.0
0032105080,50590,PUERTO RICO,META,2.758083657,-73.13780171,0.0,0.0,3,1,0.06976744186046512,Sin lluvia (0 mm),5.0
0032105080,95001,SAN JOSÉ DEL GUAVIARE,GUAVIARE,2.484286091,-71.91916993,0.0,0.0,3,1,0.06976744186046512,Sin lluvia (0 mm),5.0
0032105080,95015,CALAMAR,GUAVIARE,1.613634284,-73.0342639,0.0,0.0,3,1,0.06976744186046512,Sin lluvia (0 mm),5.0
0032105080,95025,EL RETORNO,GUAVIARE,2.143447362,-72.24364869,0.0,0.0,3,1,0.06976744186046512,Sin lluvia (0 mm),5.0
0032105080,95200,MIRAFLORES,GUAVIARE,1.363974932,-72.01810951,0.0,0.0,3,1,0.06976744186046512,Sin lluvia (0 mm),5.0
0033035010,50568,PUERTO GAITÁN,META,4.005034467,-71.63157429,0.0,0.0,6,1,0.3333333333333333,Sin lluvia (0 mm),5.0
0034015010,94343,BARRANCOMINAS,GUAINÍA,3.140558454,-69.69713423,0.0,0.0,3,1,0.06532663316582915,Sin lluvia (0 mm),5.0
0034015010,99624,SANTA ROSALÍA,VICHADA,4.968581012,-70.65997097,0.0,0.0,3,1,0.06532663316582915,Sin lluvia (0 mm),5.0
0034015010,99773,CUMARIBO,VICHADA,4.262454746,-69.52140484,0.0,0.0,3,1,0.06532663316582915,Sin lluvia (0 mm),5.0
0034035010,99001,PUERTO CARREÑO,VICHADA,5.836529669,-68.14122234,0.0,0.0,3,0,0.05319148936170213,Sin lluvia (0 mm),5.0
0035017020,50124,CABUYARO,META,4.315244759,-72.95268896,0.0,0.0,4,0,0.05027932960893855,Sin lluvia (0 mm),5.0
0035017020,50689,SAN MARTÍN,META,3.515860962,-72.65672742,0.0,0.0,4,0,0.05027932960893855,Sin lluvia (0 mm),5.0
0035020300,25281,FOSCA,CUNDINAMARCA,4.316280072,-73.95286784,0.0,0.0,5,1,0.06927710843373494,Sin lluvia (0 mm),5.0
0035020300,25339,GUTIÉRREZ,CUNDINAMARCA,4.166089563,-74.0246527,0.0,0.0,5,1,0.06927710843373494,Sin lluvia (0 mm),5.0
0035020300,25845,UNE,CUNDINAMARCA,4.244611163,-74.11187304,0.0,0.0,5,1,0.06927710843373494,Sin lluvia (0 mm),5.0
0035025060,25181,CHOACHÍ,CUNDINAMARCA,4.578183896,-73.95290054,0.0,0.0,4,1,1.0,Sin lluvia (0 mm),5.0
0035025080,25279,FÓMEQUE,CUNDINAMARCA,4.528568462,-73.79705267,0.6,0.3,4,1,0.08620689655172414,Muy ligera (< 5 mm),5.0
0035025110,50001,VILLAVICENCIO,META,4.09166877,-73.49291595,0.0,0.0,5,1,0.12359550561797752,Sin lluvia (0 mm),5.0
0035025110,50006,ACACÍAS,META,3.943383008,-73.57135162,0.0,0.0,5,1,0.12359550561797752,Sin lluvia (0 mm),5.0
0035025110,50150,CASTILLA LA NUEVA,META,3.805154089,-73.53886668,0.0,0.0,5,1,0.12359550561797752,Sin lluvia (0 mm),5.0
0035025110,50226,CUMARAL,META,4.232526389,-73.31477539,0.0,0.0,5,1,0.12359550561797752,Sin lluvia (0 mm),5.0
0035027001,25151,CÁQUEZA,CUNDINAMARCA,4.402259457,-73.94482435,0.0,0.0,6,0,0.05413105413105413,Sin lluvia (0 mm),5.0
0035027001,25594,QUETAME,CUNDINAMARCA,4.334589044,-73.85264561,0.0,0.0,6,0,0.05413105413105413,Sin lluvia (0 mm),5.0
0035027100,25178,CHIPAQUE,CUNDINAMARCA,4.463746629,-74.04605246,0.0,0.0,5,1,0.09876543209876543,Sin lluvia (0 mm),5.0
0035027100,25841,UBAQUE,CUNDINAMARCA,4.500754182,-73.97564545,0.0,0.0,5,1,0.09876543209876543,Sin lluvia (0 mm),5.0
0035027150,50318,GUAMAL,META,3.947775585,-73.95983864,0.0,0.0,3,1,0.1,Sin lluvia (0 mm),5.0
0035035110,50606,RESTREPO,META,4.204310977,-73.50226037,0.0,0.0,5,1,0.12437810945273632,Sin lluvia (0 mm),5.0
0035060210,25293,GACHALÁ,CUNDINAMARCA,4.65495513,-73.51055381,0.0,0.0,4,1,0.1318181818181818,Sin lluvia (0 mm),5.0
0035060210,25299,GAMA,CUNDINAMARCA,4.723573464,-73.60054441,0.0,0.0,4,1,0.1318181818181818,Sin lluvia (0 mm),5.0
0035060210,25372,JUNÍN,CUNDINAMARCA,4.705170789,-73.69247873,0.0,0.0,4,1,0.1318181818181818,Sin lluvia (0 mm),5.0
0035075030,15104,BOYACÁ,BOYACÁ,5.439856216,-73.38136994,0.0,0.0,2,1,0.06069364161849711,Sin lluvia (0 mm),5.0
0035075030,15189,CIÉNEGA,BOYACÁ,5.393059633,-73.28205772,0.0,0.0,2,1,0.06069364161849711,Sin lluvia (0 mm),5.0
0035075030,15367,JENESANO,BOYACÁ,5.38916272,-73.40087021,0.0,0.0,2,1,0.06069364161849711,Sin lluvia (0 mm),5.0
0035075030,15494,NUEVO COLÓN,BOYACÁ,5.354701485,-73.44873424,0.0,0.0,2,1,0.06069364161849711,Sin lluvia (0 mm),5.0
0035075030,15599,RAMIRIQUÍ,BOYACÁ,5.319934092,-73.310779,0.0,0.0,2,1,0.06069364161849711,Sin lluvia (0 mm),5.0
0035075040,15022,ALMEIDA,BOYACÁ,4.954825081,-73.38813425,0.0,0.0,4,1,0.09322033898305085,Sin lluvia (0 mm),5.0
0035075040,15299,GARAGOA,BOYACÁ,5.089466651,-73.31430272,0.0,0.0,4,1,0.09322033898305085,Sin lluvia (0 mm),5.0
0035075040,15425,MACANAL,BOYACÁ,4.980176495,-73.29413695,0.0,0.0,4,1,0.09322033898305085,Sin lluvia (0 mm),5.0
0035075070,15172,CHINAVITA,BOYACÁ,5.202971639,-73.34048074,0.0,0.0,4,1,0.10847457627118644,Sin lluvia (0 mm),5.0
0035075070,15804,TIBANÁ,BOYACÁ,5.301116649,-73.3932521,0.0,0.0,4,1,0.10847457627118644,Sin lluvia (0 mm),5.0
0035075080,15600,RÁQUIRA,BOYACÁ,5.496268621,-73.62894438,0.0,0.0,4,1,0.05517909002904162,Sin lluvia (0 mm),5.0
0035075080,15646,SAMACÁ,BOYACÁ,5.47053997,-73.5211756,0.0,0.0,4,1,0.05517909002904162,Sin lluvia (0 mm),5.0
0035075080,15861,VENTAQUEMADA,BOYACÁ,5.383385481,-73.52097942,0.0,0.0,4,1,0.05517909002904162,Sin lluvia (0 mm),5.0
0035075080,25317,GUACHETÁ,CUNDINAMARCA,5.387291542,-73.69328234,0.0,0.0,4,1,0.05517909002904162,Sin lluvia (0 mm),5.0
0035080050,15514,PÁEZ,BOYACÁ,5.095211035,-73.00435863,0.0,0.0,4,1,0.07920792079207921,Sin lluvia (0 mm),5.0
0035080050,85015,CHÁMEZA,CASANARE,5.228453404,-72.86496804,0.0,0.0,4,1,0.07920792079207921,Sin lluvia (0 mm),5.0
0035085060,15090,BERBEO,BOYACÁ,5.230936356,-73.12731944,0.0,0.0,4,0,0.04628736740597879,Sin lluvia (0 mm),5.0
0035085060,15621,RONDÓN,BOYACÁ,5.379947879,-73.19650995,0.0,0.0,4,0,0.04628736740597879,Sin lluvia (0 mm),5.0
0035085060,15660,SAN EDUARDO,BOYACÁ,5.234614686,-73.04914067,0.0,0.0,4,0,0.04628736740597879,Sin lluvia (0 mm),5.0
0035085060,15897,ZETAQUIRA,BOYACÁ,5.285635983,-73.16763091,0.0,0.0,4,0,0.04628736740597879,Sin lluvia (0 mm),5.0
0035085070,15236,CHIVOR,BOYACÁ,4.871181606,-73.36142379,0.0,0.0,4,1,0.058394160583941604,Sin lluvia (0 mm),5.0
0035085070,15667,SAN LUIS DE GACENO,BOYACÁ,4.798203543,-73.13397018,0.0,0.0,4,1,0.058394160583941604,Sin lluvia (0 mm),5.0
0035085070,15690,SANTA MARÍA,BOYACÁ,4.823002556,-73.25377506,0.0,0.0,4,1,0.058394160583941604,Sin lluvia (0 mm),5.0
0035085080,15380,LA CAPILLA,BOYACÁ,5.113167102,-73.45923708,0.0,0.0,4,1,0.05821917808219178,Sin lluvia (0 mm),5.0
0035085080,15511,PACHAVITA,BOYACÁ,5.148323877,-73.39951219,0.0,0.0,4,1,0.05821917808219178,Sin lluvia (0 mm),5.0
0035085080,15778,SUTATENZA,BOYACÁ,5.030711335,-73.41224401,0.0,0.0,4,1,0.05821917808219178,Sin lluvia (0 mm),5.0
0035085080,15798,TENZA,BOYACÁ,5.071413139,-73.42479699,0.0,0.0,4,1,0.05821917808219178,Sin lluvia (0 mm),5.0
0035085080,25807,TIBIRITA,CUNDINAMARCA,5.084102682,-73.51362546,0.0,0.0,4,1,0.05821917808219178,Sin lluvia (0 mm),5.0
0035087020,15135,CAMPOHERMOSO,BOYACÁ,5.006862536,-73.1446703,0.0,0.0,4,1,0.13385826771653545,Sin lluvia (0 mm),5.0
0035087020,15455,MIRAFLORES,BOYACÁ,5.150953297,-73.17896722,0.0,0.0,4,1,0.13385826771653545,Sin lluvia (0 mm),5.0
0035160000,15759,SOGAMOSO,BOYACÁ,5.646672053,-72.8709565,0.0,0.0,5,1,0.08484848484848485,Sin lluvia (0 mm),5.0
0035160010,15822,TOTA,BOYACÁ,5.501297215,-72.99633297,0.0,0.0,4,1,0.07450980392156863,Sin lluvia (0 mm),5.0
0035160020,15226,CUÍTIVA,BOYACÁ,5.58775449,-72.93953686,0.568,0.106,5,1,0.07600950118764846,Muy ligera (< 5 mm),5.0
0035160020,15362,IZA,BOYACÁ,5.617366016,-72.96986504,0.568,0.106,5,1,0.07600950118764846,Muy ligera (< 5 mm),5.0
0035185010,50573,PUERTO LÓPEZ,META,4.014298921,-72.64570499,0.0,0.0,4,0,0.047325102880658436,Sin lluvia (0 mm),5.0
0035197020,15518,PAJARITO,BOYACÁ,5.382328949,-72.69672674,0.1,0.1,4,1,0.08745247148288973,Muy ligera (< 5 mm),5.0
0035197030,85010,AGUAZUL,CASANARE,5.126121886,-72.54821017,0.0,0.0,2,0,0.02348993288590604,Sin lluvia (0 mm),5.0
0035197030,85279,RECETOR,CASANARE,5.263068507,-72.77081831,0.0,0.0,2,0,0.02348993288590604,Sin lluvia (0 mm),5.0
0035215020,85001,YOPAL,CASANARE,5.242744761,-72.25802857,0.0,0.0,4,1,0.06142506142506143,Sin lluvia (0 mm),5.0
0035215030,15464,MONGUA,BOYACÁ,5.710937981,-72.63402875,0.7000000000000001,0.2,4,1,0.08365019011406843,Muy ligera (< 5 mm),5.0
0035215030,15533,PAYA,BOYACÁ,5.621242742,-72.3692906,0.7000000000000001,0.2,4,1,0.08365019011406843,Muy ligera (< 5 mm),5.0
0035215030,15550,PISBA,BOYACÁ,5.768131812,-72.43993232,0.7000000000000001,0.2,4,1,0.08365019011406843,Muy ligera (< 5 mm),5.0
0035217060,85225,NUNCHÍA,CASANARE,5.529181235,-72.09251937,0.2,0.1,4,1,0.08969210174029452,Muy ligera (< 5 mm),5.0
0035217090,15377,LABRANZAGRANDE,BOYACÁ,5.541378132,-72.5903846,0.4,0.2,5,1,0.08649789029535865,Muy ligera (< 5 mm),5.0
0035225030,85230,OROCUÉ,CASANARE,4.915139133,-71.59873966,0.0,0.0,6,1,0.0992063492063492,Sin lluvia (0 mm),5.0
0035235010,15755,SOCOTÁ,BOYACÁ,5.906513772,-72.53646361,5.1,0.6,4,1,0.07317073170731707,Ligera (5–15 mm),6.2449337282192605
0035235050,85263,PORE,CASANARE,5.663194953,-71.92580806,5.800000000000001,1.5,5,1,0.09224318658280922,Ligera (5–15 mm),6.61704139963322
0035235050,85315,SÁCAMA,CASANARE,6.049906435,-72.21076163,5.800000000000001,1.5,5,1,0.09224318658280922,Ligera (5–15 mm),6.61704139963322
0035235050,85400,TÁMARA,CASANARE,5.878927424,-72.20067822,5.800000000000001,1.5,5,1,0.09224318658280922,Ligera (5–15 mm),6.61704139963322
0035237030,85325,SAN LUIS DE PALENQUE,CASANARE,5.274955665,-71.81749276,0.0,0.0,3,1,0.08146067415730338,Sin lluvia (0 mm),5.0
0035237030,85430,TRINIDAD,CASANARE,5.354527091,-71.25479519,0.0,0.0,3,1,0.08146067415730338,Sin lluvia (0 mm),5.0
0037015030,54743,SILOS,NORTE DE SANTANDER,7.180991879,-72.78617884,7.7,3.0,4,1,0.109375,Ligera (5–15 mm),7.5169572619144205
0037017040,54125,CÁCOTA,NORTE DE SANTANDER,7.270560088,-72.65212153,0.0,0.0,4,1,0.09497206703910614,Sin lluvia (0 mm),5.0
0037017040,54174,CHITAGÁ,NORTE DE SANTANDER,7.05161677,-72.52544746,0.0,0.0,4,1,0.09497206703910614,Sin lluvia (0 mm),5.0
0037017040,54377,LABATECA,NORTE DE SANTANDER,7.218372474,-72.48281514,0.0,0.0,4,1,0.09497206703910614,Sin lluvia (0 mm),5.0
0037045010,15223,CUBARÁ,BOYACÁ,6.886954878,-72.18156285,12.4,0.9,5,1,0.09333333333333334,Ligera (5–15 mm),9.314531442036696
0037045010,81065,ARAUQUITA,ARAUCA,6.799338394,-71.29827429,12.4,0.9,5,1,0.09333333333333334,Ligera (5–15 mm),9.314531442036696
0037045010,81300,FORTUL,ARAUCA,6.750907234,-71.79124241,12.4,0.9,5,1,0.09333333333333334,Ligera (5–15 mm),9.314531442036696
0037045010,81736,SARAVENA,ARAUCA,6.906941714,-71.85070757,12.4,0.9,5,1,0.09333333333333334,Ligera (5–15 mm),9.314531442036696
0042077020,18756,SOLANO,CAQUETÁ,0.096131862,-72.32036402,6.2,3.0,5,1,0.10469314079422383,Ligera (5–15 mm),6.818636124360854
0042077020,91430,LA VICTORIA,AMAZONAS,-0.125016381,-71.10487805,6.2,3.0,5,1,0.10469314079422383,Ligera (5–15 mm),6.818636124360854
0042077020,91460,MIRITÍ - PARANÁ,AMAZONAS,-0.687037553,-71.1855046,6.2,3.0,5,1,0.10469314079422383,Ligera (5–15 mm),6.818636124360854
0042077020,91669,PUERTO SANTANDER,AMAZONAS,-1.101032624,-71.93893358,6.2,3.0,5,1,0.10469314079422383,Ligera (5–15 mm),6.818636124360854
0042077020,94887,PANA PANA,GUAINÍA,1.981055294,-69.11440036,6.2,3.0,5,1,0.10469314079422383,Ligera (5–15 mm),6.818636124360854
0042077020,94888,MORICHAL,GUAINÍA,2.421444806,-69.84001585,6.2,3.0,5,1,0.10469314079422383,Ligera (5–15 mm),6.818636124360854
0042077020,97001,MITÚ,VAUPÉS,1.06148231,-70.46688401,6.2,3.0,5,1,0.10469314079422383,Ligera (5–15 mm),6.818636124360854
0042077020,97161,CARURÚ,VAUPÉS,1.052762314,-71.33093035,6.2,3.0,5,1,0.10469314079422383,Ligera (5–15 mm),6.818636124360854
0042077020,97511,PACOA,VAUPÉS,-0.00834364,-70.5433061,6.2,3.0,5,1,0.10469314079422383,Ligera (5–15 mm),6.818636124360854
0042077020,97666,TARAIRA,VAUPÉS,-0.719822209,-69.90776202,6.2,3.0,5,1,0.10469314079422383,Ligera (5–15 mm),6.818636124360854
0042077020,97777,PAPUNAHUA,VAUPÉS,1.569312273,-70.91166315,6.2,3.0,5,1,0.10469314079422383,Ligera (5–15 mm),6.818636124360854
0042077020,97889,YAVARATÉ,VAUPÉS,0.833312241,-69.61867754,6.2,3.0,5,1,0.10469314079422383,Ligera (5–15 mm),6.818636124360854
0044017070,19701,SANTA ROSA,CAUCA,1.52002179,-76.53876281,0.0,0.0,4,1,0.06882591093117409,Sin lluvia (0 mm),5.0
0044017110,19533,PIAMONTE,CAUCA,1.054128816,-76.4443271,0.4,0.4,4,1,0.05976095617529881,Muy ligera (< 5 mm),5.0
0044017110,86569,PUERTO CAICEDO,PUTUMAYO,0.70416861,-76.49864415,0.4,0.4,4,1,0.05976095617529881,Muy ligera (< 5 mm),5.0
0044017110,86885,VILLAGARZÓN,PUTUMAYO,0.911149515,-76.74495447,0.4,0.4,4,1,0.05976095617529881,Muy ligera (< 5 mm),5.0
0044017120,86001,MOCOA,PUTUMAYO,1.26070915,-76.66584349,0.0,0.0,3,1,0.09455587392550144,Sin lluvia (0 mm),5.0
0044035040,18001,FLORENCIA,CAQUETÁ,1.749138704,-75.55823906,0.0,0.0,4,1,0.058823529411764705,Sin lluvia (0 mm),5.0
0044035050,18479,MORELIA,CAQUETÁ,1.38299611,-75.67381123,0.0,0.0,3,1,0.06509539842873176,Sin lluvia (0 mm),5.0
0044045030,18029,ALBANIA,CAQUETÁ,1.22786549,-75.88232651,0.20000000000000004,0.2,3,1,0.054441260744985676,Muy ligera (< 5 mm),5.0
0044045030,18205,CURILLO,CAQUETÁ,1.115379292,-75.97328452,0.20000000000000004,0.2,3,1,0.054441260744985676,Muy ligera (< 5 mm),5.0
0044045030,18610,SAN JOSÉ DEL FRAGUA,CAQUETÁ,1.304702314,-76.11000594,0.20000000000000004,0.2,3,1,0.054441260744985676,Muy ligera (< 5 mm),5.0
0044045030,18785,SOLITA,CAQUETÁ,0.943939454,-75.64668544,0.20000000000000004,0.2,3,1,0.054441260744985676,Muy ligera (< 5 mm),5.0
0044045030,18860,VALPARAÍSO,CAQUETÁ,1.07534915,-75.73779004,0.20000000000000004,0.2,3,1,0.054441260744985676,Muy ligera (< 5 mm),5.0
0044045030,86571,PUERTO GUZMÁN,PUTUMAYO,0.746432215,-75.88022979,0.20000000000000004,0.2,3,1,0.054441260744985676,Muy ligera (< 5 mm),5.0
0044055010,18150,CARTAGENA DEL CHAIRÁ,CAQUETÁ,0.647693081,-74.27235499,0.0,0.0,6,1,0.25,Sin lluvia (0 mm),5.0
0044055010,18460,MILÁN,CAQUETÁ,1.146692554,-75.38664764,0.0,0.0,6,1,0.25,Sin lluvia (0 mm),5.0
0044055010,86573,PUERTO LEGUÍZAMO,PUTUMAYO,0.05947197,-75.06479327,0.0,0.0,6,1,0.25,Sin lluvia (0 mm),5.0
0044055010,91530,PUERTO ALEGRÍA,AMAZONAS,-0.952145073,-73.75722748,0.0,0.0,6,1,0.25,Sin lluvia (0 mm),5.0
0046015030,18592,PUERTO RICO,CAQUETÁ,2.018940891,-75.07308627,0.0,0.0,4,1,0.29411764705882354,Sin lluvia (0 mm),5.0
0046015030,18753,SAN VICENTE DEL CAGUÁN,CAQUETÁ,1.308465061,-74.19746971,0.0,0.0,4,1,0.29411764705882354,Sin lluvia (0 mm),5.0
0046015030,50350,LA MACARENA,META,2.161863917,-74.09488076,0.0,0.0,4,1,0.29411764705882354,Sin lluvia (0 mm),5.0
0046035010,18247,EL DONCELLO,CAQUETÁ,1.713734697,-75.26878109,0.0,0.0,4,1,0.0718562874251497,Sin lluvia (0 mm),5.0
0046035010,18256,EL PAUJÍL,CAQUETÁ,1.476630016,-75.20231825,0.0,0.0,4,1,0.0718562874251497,Sin lluvia (0 mm),5.0
0046035010,18410,LA MONTAÑITA,CAQUETÁ,1.302860442,-75.23572732,0.0,0.0,4,1,0.0718562874251497,Sin lluvia (0 mm),5.0
0047017070,86219,COLÓN,PUTUMAYO,1.204815876,-76.97376805,0.0,0.0,3,1,0.08,Sin lluvia (0 mm),5.0
0047017070,86749,SIBUNDOY,PUTUMAYO,1.228746922,-76.91307585,0.0,0.0,3,1,0.08,Sin lluvia (0 mm),5.0
0047017070,86755,SAN FRANCISCO,PUTUMAYO,1.136071096,-76.84726661,0.0,0.0,3,1,0.08,Sin lluvia (0 mm),5.0
0047017070,86760,SANTIAGO,PUTUMAYO,1.036021482,-76.97751684,0.0,0.0,3,1,0.08,Sin lluvia (0 mm),5.0
0047017110,52356,IPIALES,NARIÑO,0.497708465,-77.24047625,0.0,0.0,4,1,0.085,Sin lluvia (0 mm),5.0
0047017170,86320,ORITO,PUTUMAYO,0.673756323,-76.94313923,0.0,0.0,1,0,0.0,Sin lluvia (0 mm),5.0
0047017170,86568,PUERTO ASÍS,PUTUMAYO,0.433884539,-76.52158203,0.0,0.0,1,0,0.0,Sin lluvia (0 mm),5.0
0047017170,86757,SAN MIGUEL,PUTUMAYO,0.272449048,-76.84510459,0.0,0.0,1,0,0.0,Sin lluvia (0 mm),5.0
0047017170,86865,VALLE DEL GUAMUEZ,PUTUMAYO,0.42012589,-76.77067026,0.0,0.0,1,0,0.0,Sin lluvia (0 mm),5.0
0048015040,91001,LETICIA,AMAZONAS,-3.530058784,-70.04513691,3.2,1.7,5,1,0.05741626794258373,Muy ligera (< 5 mm),5.063359283697574
0048015040,91263,EL ENCANTO,AMAZONAS,-1.997234795,-72.72361566,3.2,1.7,5,1,0.05741626794258373,Muy ligera (< 5 mm),5.063359283697574
0048015040,91405,LA CHORRERA,AMAZONAS,-1.509799605,-72.44442966,3.2,1.7,5,1,0.05741626794258373,Muy ligera (< 5 mm),5.063359283697574
0048015040,91407,LA PEDRERA,AMAZONAS,-1.550256503,-69.94602815,3.2,1.7,5,1,0.05741626794258373,Muy ligera (< 5 mm),5.063359283697574
0048015040,91536,PUERTO ARICA,AMAZONAS,-1.91085406,-71.1484049,3.2,1.7,5,1,0.05741626794258373,Muy ligera (< 5 mm),5.063359283697574
0048015040,91540,PUERTO NARIÑO,AMAZONAS,-3.631323222,-70.47199039,3.2,1.7,5,1,0.05741626794258373,Muy ligera (< 5 mm),5.063359283697574
0048015040,91798,TARAPACÁ,AMAZONAS,-2.451794264,-70.00651535,3.2,1.7,5,1,0.05741626794258373,Muy ligera (< 5 mm),5.063359283697574
0051020011,52227,CUMBAL,NARIÑO,0.944223274,-77.95958446,0.2,0.1,4,1,0.11910669975186104,Muy ligera (< 5 mm),5.0
0051020011,52435,MALLAMA,NARIÑO,1.155947016,-77.84664646,0.2,0.1,4,1,0.11910669975186104,Muy ligera (< 5 mm),5.0
0051020011,52612,RICAURTE,NARIÑO,1.147671848,-78.05811118,0.2,0.1,4,1,0.11910669975186104,Muy ligera (< 5 mm),5.0
0051020011,52699,SANTACRUZ,NARIÑO,1.285179376,-77.7445744,0.2,0.1,4,1,0.11910669975186104,Muy ligera (< 5 mm),5.0
0051027060,52835,SAN ANDRÉS DE TUMACO,NARIÑO,1.574550638,-78.61540963,0.1,0.1,4,0,0.05238095238095238,Muy ligera (< 5 mm),5.0
0051035020,52490,OLAYA HERRERA,NARIÑO,2.287856547,-78.31219024,27.0,8.6,2,0,0.0462046204620462,Moderada (15–30 mm),13.220106341400665
0051035020,52520,FRANCISCO PIZARRO,NARIÑO,2.088531925,-78.59193099,27.0,8.6,2,0,0.0462046204620462,Moderada (15–30 mm),13.220106341400665
0052010020,19075,BALBOA,CAUCA,2.084732945,-77.2088133,0.2,0.1,2,1,0.06015037593984962,Muy ligera (< 5 mm),5.0
0052010020,19318,GUAPI,CAUCA,2.41326696,-77.69047531,0.2,0.1,2,1,0.06015037593984962,Muy ligera (< 5 mm),5.0
0052010020,52405,LEIVA,NARIÑO,1.900862361,-77.31220073,0.2,0.1,2,1,0.06015037593984962,Muy ligera (< 5 mm),5.0
0052017030,19050,ARGELIA,CAUCA,2.329337283,-77.26314906,0.0,0.0,4,0,0.03861003861003861,Sin lluvia (0 mm),5.0
0052017030,19256,EL TAMBO,CAUCA,2.534488312,-77.00511207,0.0,0.0,4,0,0.03861003861003861,Sin lluvia (0 mm),5.0
0052017030,19532,PATÍA,CAUCA,2.157983906,-77.0465762,0.0,0.0,4,0,0.03861003861003861,Sin lluvia (0 mm),5.0
0052017030,19785,SUCRE,CAUCA,2.057735184,-76.90993965,0.0,0.0,4,0,0.03861003861003861,Sin lluvia (0 mm),5.0
0052017030,19809,TIMBIQUÍ,CAUCA,2.699475127,-77.49131577,0.0,0.0,4,0,0.03861003861003861,Sin lluvia (0 mm),5.0
0052020070,19022,ALMAGUER,CAUCA,1.912440521,-76.83494519,0.0,0.0,2,1,0.06451612903225806,Sin lluvia (0 mm),5.0
0052020070,19100,BOLÍVAR,CAUCA,1.853951938,-76.96337454,0.0,0.0,2,1,0.06451612903225806,Sin lluvia (0 mm),5.0
0052020070,19693,SAN SEBASTIÁN,CAUCA,1.856261815,-76.71652424,0.0,0.0,2,1,0.06451612903225806,Sin lluvia (0 mm),5.0
0052020070,52693,SAN PABLO,NARIÑO,1.681576627,-76.97527979,0.0,0.0,2,1,0.06451612903225806,Sin lluvia (0 mm),5.0
0052025080,19450,MERCADERES,CAUCA,1.793825164,-77.18060381,0.0,0.0,4,1,0.08791208791208792,Sin lluvia (0 mm),5.0
0052025090,19392,LA SIERRA,CAUCA,2.187473572,-76.78228032,3.8,1.8,4,1,0.09264305177111716,Muy ligera (< 5 mm),5.470460332251566
0052025090,19397,LA VEGA,CAUCA,2.053933426,-76.7588062,3.8,1.8,4,1,0.09264305177111716,Muy ligera (< 5 mm),5.470460332251566
0052025090,19622,ROSAS,CAUCA,2.260421954,-76.74582033,3.8,1.8,4,1,0.09264305177111716,Muy ligera (< 5 mm),5.470460332251566
0052035040,19290,FLORENCIA,CAUCA,1.69453474,-77.08735723,0.0,0.0,3,1,0.09289617486338798,Sin lluvia (0 mm),5.0
0052035040,52399,LA UNIÓN,NARIÑO,1.619697376,-77.14284622,0.0,0.0,3,1,0.09289617486338798,Sin lluvia (0 mm),5.0
